[
  {
    "com": "玉环港盛副食品商行",
    "name": "潘忠平",
    "addr": "浙江省玉环市大麦屿街道港盛路145号",
    "result": "<font color=\"#52f534\">未查到失信记录<\/font>",
    "from": {
      "lon": 121.16361,
      "lat": 28.091614
    },
    "to": {
      "lon": 121.41507,
      "lat": 28.65977
    },
    "color": "78,248,57"
  },
  {
    "com": "台州市路桥荣顶室内装潢部",
    "name": "罗富荣",
    "addr": "浙江省台州市路桥区蓬街镇浦北村2区88号",
    "result": "<font color=\"#52f534\">未查到失信记录<\/font>",
    "from": {
      "lon": 121.47327,
      "lat": 28.56233
    },
    "to": {
      "lon": 121.41507,
      "lat": 28.65977
    },
    "color": "78,248,57"
  },
  {
    "com": "玉环细英建材商行",
    "name": "潘细英",
    "addr": "浙江省玉环市坎门街道双龙村双龙路207号",
    "result": "<font color=\"#52f534\">未查到失信记录<\/font>",
    "from": {
      "lon": 121.27284,
      "lat": 28.103804
    },
    "to": {
      "lon": 121.41507,
      "lat": 28.65977
    },
    "color": "78,248,57"
  },
  {
    "com": "玉环贤忠建材商行",
    "name": "潘贤忠",
    "addr": "浙江省玉环市坎门街道双龙村双龙路4号",
    "result": "<font color=\"#52f534\">未查到失信记录<\/font>",
    "from": {
      "lon": 121.276276,
      "lat": 28.106354
    },
    "to": {
      "lon": 121.41507,
      "lat": 28.65977
    },
    "color": "78,248,57"
  },
  {
    "com": "玉环新彩建材商行",
    "name": "张新彩",
    "addr": "浙江省玉环市坎门街道双龙路156号",
    "result": "<font color=\"#52f534\">未查到失信记录<\/font>",
    "from": {
      "lon": 121.2729,
      "lat": 28.103949
    },
    "to": {
      "lon": 121.41507,
      "lat": 28.65977
    },
    "color": "78,248,57"
  },
  {
    "com": "温岭市太平宁鑫餐饮店",
    "name": "李莹",
    "addr": "浙江省台州市温岭市太平街道鸣远路21号",
    "result": "<font color=\"#52f534\">未查到失信记录<\/font>",
    "from": {
      "lon": 121.380486,
      "lat": 28.377996
    },
    "to": {
      "lon": 121.41507,
      "lat": 28.65977
    },
    "color": "78,248,57"
  },
  {
    "com": "仙居县卤女王小吃店",
    "name": "张丹青",
    "addr": "浙江省台州市仙居县安洲街道穿城中路51号",
    "result": "<font color=\"#52f534\">未查到失信记录<\/font>",
    "from": {
      "lon": 120.744576,
      "lat": 28.857882
    },
    "to": {
      "lon": 121.41507,
      "lat": 28.65977
    },
    "color": "78,248,57"
  },
  {
    "com": "临海市郅立金属制品厂",
    "name": "秦玉琴",
    "addr": "浙江省台州市临海市江南街道江南大道380号",
    "result": "<font color=\"#52f534\">未查到失信记录<\/font>",
    "from": {
      "lon": 121.14483,
      "lat": 28.823662
    },
    "to": {
      "lon": 121.41507,
      "lat": 28.65977
    },
    "color": "78,248,57"
  },
  {
    "com": "仙居县仙弟电动车修理店",
    "name": "吕仙弟",
    "addr": "浙江省台州市仙居县南峰街道石板路村229号",
    "result": "<font color=\"#52f534\">未查到失信记录<\/font>",
    "from": {
      "lon": 120.72279,
      "lat": 28.83765
    },
    "to": {
      "lon": 121.41507,
      "lat": 28.65977
    },
    "color": "78,248,57"
  },
  {
    "com": "临海市何美丽面条作坊",
    "name": "何美丽",
    "addr": "浙江省台州市临海市河头镇人民路131号",
    "result": "<font color=\"#52f534\">未查到失信记录<\/font>",
    "from": {
      "lon": 121.10694,
      "lat": 28.998365
    },
    "to": {
      "lon": 121.41507,
      "lat": 28.65977
    },
    "color": "78,248,57"
  },
  {
    "com": "温岭市城东食尚便利店",
    "name": "吴恩光",
    "addr": "浙江省台州市温岭市城东街道后塘岸村彩屏路298号",
    "result": "<font color=\"#52f534\">未查到失信记录<\/font>",
    "from": {
      "lon": 121.40356,
      "lat": 28.406887
    },
    "to": {
      "lon": 121.41507,
      "lat": 28.65977
    },
    "color": "78,248,57"
  },
  {
    "com": "仙居县王军妹棋牌室",
    "name": "王军妹",
    "addr": "浙江省台州市仙居县安洲街道水源路2-20号",
    "result": "<font color=\"#52f534\">未查到失信记录<\/font>",
    "from": {
      "lon": 120.73769,
      "lat": 28.863552
    },
    "to": {
      "lon": 121.41507,
      "lat": 28.65977
    },
    "color": "78,248,57"
  },
  {
    "com": "台州市黄岩丝琪理发店",
    "name": "陆红花",
    "addr": "浙江省台州市黄岩区东城街道东浦路12号",
    "result": "<font color=\"#52f534\">未查到失信记录<\/font>",
    "from": {
      "lon": 121.276924,
      "lat": 28.65794
    },
    "to": {
      "lon": 121.41507,
      "lat": 28.65977
    },
    "color": "78,248,57"
  },
  {
    "com": "仙居县下许头农场",
    "name": "朱莹果",
    "addr": "浙江省台州市仙居县白塔镇上邵村下许头三亩三41号",
    "result": "<font color=\"#52f534\">未查到失信记录<\/font>",
    "from": {
      "lon": 120.64629,
      "lat": 28.731287
    },
    "to": {
      "lon": 121.41507,
      "lat": 28.65977
    },
    "color": "78,248,57"
  },
  {
    "com": "温岭市大溪萍萍日用品商行",
    "name": "赵海萍",
    "addr": "浙江省台州市温岭市大溪镇安平东路202号",
    "result": "<font color=\"#52f534\">未查到失信记录<\/font>",
    "from": {
      "lon": 121.26803,
      "lat": 28.468822
    },
    "to": {
      "lon": 121.41507,
      "lat": 28.65977
    },
    "color": "78,248,57"
  },
  {
    "com": "临海市景林塑料制品厂",
    "name": "项修林",
    "addr": "浙江省台州市临海市涌泉镇西洋村（临海市回浦船舶修造有限公司）",
    "result": "<font color=\"#52f534\">未查到失信记录<\/font>",
    "from": {
      "lon": 121.274826,
      "lat": 28.759636
    },
    "to": {
      "lon": 121.41507,
      "lat": 28.65977
    },
    "color": "78,248,57"
  },
  {
    "com": "临海市豪创物资商行",
    "name": "章建林",
    "addr": "浙江省台州市临海市邵家渡街道章家村28号",
    "result": "<font color=\"#52f534\">未查到失信记录<\/font>",
    "from": {
      "lon": 121.20561,
      "lat": 28.875221
    },
    "to": {
      "lon": 121.41507,
      "lat": 28.65977
    },
    "color": "78,248,57"
  },
  {
    "com": "温岭市城东海派烤鱼店",
    "name": "余建波",
    "addr": "浙江省台州市温岭市城东街道下岸渚村A区17幢5号",
    "result": "<font color=\"#52f534\">未查到失信记录<\/font>",
    "from": {
      "lon": 121.396095,
      "lat": 28.399057
    },
    "to": {
      "lon": 121.41507,
      "lat": 28.65977
    },
    "color": "78,248,57"
  },
  {
    "com": "台州市黄岩瞿志扬装饰材料经营部",
    "name": "瞿志扬",
    "addr": "浙江省台州市黄岩区北城街道二环北路858号（台州市黄岩装饰城商位号B2219）",
    "result": "<font color=\"#52f534\">未查到失信记录<\/font>",
    "from": {
      "lon": 121.25336,
      "lat": 28.676378
    },
    "to": {
      "lon": 121.41507,
      "lat": 28.65977
    },
    "color": "78,248,57"
  },
  {
    "com": "临海市景宛门业经营部",
    "name": "杨广剑",
    "addr": "浙江省台州市临海市临海市小芝镇南丰村414号",
    "result": "<font color=\"#52f534\">未查到失信记录<\/font>",
    "from": {
      "lon": 121.4366,
      "lat": 28.884752
    },
    "to": {
      "lon": 121.41507,
      "lat": 28.65977
    },
    "color": "78,248,57"
  },
  {
    "com": "三门县帝曹青蟹经营部",
    "name": "姚玉飞",
    "addr": "浙江省三门县海润街道朝阳路33号（三门县青蟹批发交易中心B086号摊位）",
    "result": "<font color=\"#52f534\">未查到失信记录<\/font>",
    "from": {
      "lon": 121.42944,
      "lat": 29.10421
    },
    "to": {
      "lon": 121.41507,
      "lat": 28.65977
    },
    "color": "78,248,57"
  },
  {
    "com": "温岭市林氏园林石雕有限公司",
    "name": "林正波",
    "addr": "浙江省台州市温岭市箬横镇中库村后中库92号",
    "result": "<font color=\"#52f534\">未查到失信记录<\/font>",
    "from": {
      "lon": 121.51691,
      "lat": 28.406706
    },
    "to": {
      "lon": 121.41507,
      "lat": 28.65977
    },
    "color": "78,248,57"
  },
  {
    "com": "三门县蟠龙健康咨询服务部",
    "name": "梅伟琴",
    "addr": "浙江省三门县海游街道利民巷15号101室",
    "result": "<font color=\"#52f534\">未查到失信记录<\/font>",
    "from": {
      "lon": 121.382,
      "lat": 29.12111
    },
    "to": {
      "lon": 121.41507,
      "lat": 28.65977
    },
    "color": "78,248,57"
  },
  {
    "com": "仙居县红布蝶窗帘店",
    "name": "陈慧珍",
    "addr": "浙江省台州市仙居县南峰街道省耕路166号",
    "result": "<font color=\"#52f534\">未查到失信记录<\/font>",
    "from": {
      "lon": 120.738525,
      "lat": 28.85812
    },
    "to": {
      "lon": 121.41507,
      "lat": 28.65977
    },
    "color": "78,248,57"
  },
  {
    "com": "临海市品嘉灯饰加工厂",
    "name": "徐天能",
    "addr": "浙江省台州市临海市东塍镇前徐村1-126号",
    "result": "<font color=\"#52f534\">未查到失信记录<\/font>",
    "from": {
      "lon": 121.278336,
      "lat": 28.9206
    },
    "to": {
      "lon": 121.41507,
      "lat": 28.65977
    },
    "color": "78,248,57"
  },
  {
    "com": "台州九九金融信息技术服务外包有限公司",
    "name": "朱美娟",
    "addr": "浙江省台州市仙居县福应街道环城东路107号",
    "result": "<font color=\"#52f534\">未查到失信记录<\/font>",
    "from": {
      "lon": 120.75305,
      "lat": 28.861835
    },
    "to": {
      "lon": 121.41507,
      "lat": 28.65977
    },
    "color": "78,248,57"
  },
  {
    "com": "台州市椒江春斐电子商行",
    "name": "陈春斐",
    "addr": "浙江省台州市椒江区百姓家园58幢三单元602室",
    "result": "<font color=\"#52f534\">未查到失信记录<\/font>",
    "from": {
      "lon": 121.463394,
      "lat": 28.660967
    },
    "to": {
      "lon": 121.41507,
      "lat": 28.65977
    },
    "color": "78,248,57"
  },
  {
    "com": "玉环康鑫保健食品商行",
    "name": "罗升吉",
    "addr": "浙江省玉环市大麦屿街道刘园幸福路4号",
    "result": "<font color=\"#52f534\">未查到失信记录<\/font>",
    "from": {
      "lon": 121.17527,
      "lat": 28.102814
    },
    "to": {
      "lon": 121.41507,
      "lat": 28.65977
    },
    "color": "78,248,57"
  },
  {
    "com": "温岭市滨海李记水产品商行",
    "name": "王美琴",
    "addr": "浙江省台州市温岭市滨海镇泰星村519号",
    "result": "<font color=\"#52f534\">未查到失信记录<\/font>",
    "from": {
      "lon": 121.531265,
      "lat": 28.454683
    },
    "to": {
      "lon": 121.41507,
      "lat": 28.65977
    },
    "color": "78,248,57"
  },
  {
    "com": "台州市椒江春富电子商务商行",
    "name": "李春富",
    "addr": "浙江省台州市椒江区东园小区9号楼601室",
    "result": "<font color=\"#52f534\">未查到失信记录<\/font>",
    "from": {
      "lon": 121.45512,
      "lat": 28.686758
    },
    "to": {
      "lon": 121.41507,
      "lat": 28.65977
    },
    "color": "78,248,57"
  },
  {
    "com": "台州市黄岩谨鸿电子商务商行",
    "name": "叶映",
    "addr": "浙江省台州市黄岩区院桥镇兴华路33号2单元901室",
    "result": "<font color=\"#52f534\">未查到失信记录<\/font>",
    "from": {
      "lon": 121.26427,
      "lat": 28.559515
    },
    "to": {
      "lon": 121.41507,
      "lat": 28.65977
    },
    "color": "78,248,57"
  },
  {
    "com": "仙居县群文文化艺术团",
    "name": "戴斌",
    "addr": "浙江省台州市仙居县安洲街道中国工艺品城内",
    "result": "<font color=\"#52f534\">未查到失信记录<\/font>",
    "from": {
      "lon": 120.73769,
      "lat": 28.863552
    },
    "to": {
      "lon": 121.41507,
      "lat": 28.65977
    },
    "color": "78,248,57"
  },
  {
    "com": "临海市老烟囱豆腐作坊",
    "name": "周佐培",
    "addr": "浙江省台州市临海市古城街道两水村100号",
    "result": "<font color=\"#52f534\">未查到失信记录<\/font>",
    "from": {
      "lon": 121.15719,
      "lat": 28.836565
    },
    "to": {
      "lon": 121.41507,
      "lat": 28.65977
    },
    "color": "78,248,57"
  },
  {
    "com": "台州市黄岩生浩纸箱厂",
    "name": "李生浩",
    "addr": "浙江省台州市黄岩区东城街道黄椒路103号",
    "result": "<font color=\"#52f534\">未查到失信记录<\/font>",
    "from": {
      "lon": 121.27915,
      "lat": 28.661268
    },
    "to": {
      "lon": 121.41507,
      "lat": 28.65977
    },
    "color": "78,248,57"
  },
  {
    "com": "台州市黄岩凌丽汽车配件厂",
    "name": "凌筱丽",
    "addr": "浙江省台州市黄岩区江口街道道头村",
    "result": "<font color=\"#52f534\">未查到失信记录<\/font>",
    "from": {
      "lon": 121.3501,
      "lat": 28.6937
    },
    "to": {
      "lon": 121.41507,
      "lat": 28.65977
    },
    "color": "78,248,57"
  },
  {
    "com": "台州市黄岩昌慧化妆品店",
    "name": "郑羽",
    "addr": "浙江省台州市黄岩区东城街道柔桥后巷49号",
    "result": "<font color=\"#52f534\">未查到失信记录<\/font>",
    "from": {
      "lon": 121.28088,
      "lat": 28.65862
    },
    "to": {
      "lon": 121.41507,
      "lat": 28.65977
    },
    "color": "78,248,57"
  },
  {
    "com": "台州市黄岩俊吉模具厂",
    "name": "陈丽华",
    "addr": "浙江省台州市黄岩区东城街道印山路146号",
    "result": "<font color=\"#52f534\">未查到失信记录<\/font>",
    "from": {
      "lon": 121.27516,
      "lat": 28.640131
    },
    "to": {
      "lon": 121.41507,
      "lat": 28.65977
    },
    "color": "78,248,57"
  },
  {
    "com": "玉环巷雨甜品店",
    "name": "谢荣辉",
    "addr": "浙江省玉环市坎门街道新大街168号",
    "result": "<font color=\"#52f534\">未查到失信记录<\/font>",
    "from": {
      "lon": 121.2801,
      "lat": 28.085588
    },
    "to": {
      "lon": 121.41507,
      "lat": 28.65977
    },
    "color": "78,248,57"
  },
  {
    "com": "玉环康明建材经营部",
    "name": "何碧勇",
    "addr": "浙江省玉环市大麦屿街道五一村龙山路",
    "result": "<font color=\"#52f534\">未查到失信记录<\/font>",
    "from": {
      "lon": 121.17426,
      "lat": 28.080046
    },
    "to": {
      "lon": 121.41507,
      "lat": 28.65977
    },
    "color": "78,248,57"
  },
  {
    "com": "仙居县老应家卤味店",
    "name": "俞淑青",
    "addr": "浙江省台州市仙居县安洲街道水源路5幢1号",
    "result": "<font color=\"#52f534\">未查到失信记录<\/font>",
    "from": {
      "lon": 120.73769,
      "lat": 28.863552
    },
    "to": {
      "lon": 121.41507,
      "lat": 28.65977
    },
    "color": "78,248,57"
  },
  {
    "com": "临海市项胡平熟食店",
    "name": "项胡平",
    "addr": "浙江省台州市临海市桃渚镇四岔农贸市场",
    "result": "<font color=\"#52f534\">未查到失信记录<\/font>",
    "from": {
      "lon": 121.59363,
      "lat": 28.82771
    },
    "to": {
      "lon": 121.41507,
      "lat": 28.65977
    },
    "color": "78,248,57"
  },
  {
    "com": "温岭市太平黑龙堂餐饮店",
    "name": "李建武",
    "addr": "浙江省台州市温岭市太平街道万泉东路429号",
    "result": "<font color=\"#52f534\">未查到失信记录<\/font>",
    "from": {
      "lon": 121.39452,
      "lat": 28.37203
    },
    "to": {
      "lon": 121.41507,
      "lat": 28.65977
    },
    "color": "78,248,57"
  },
  {
    "com": "玉环陈明机械厂",
    "name": "陈明明",
    "addr": "浙江省玉环市楚门镇直塘村",
    "result": "<font color=\"#52f534\">未查到失信记录<\/font>",
    "from": {
      "lon": 121.29839,
      "lat": 28.23946
    },
    "to": {
      "lon": 121.41507,
      "lat": 28.65977
    },
    "color": "78,248,57"
  },
  {
    "com": "温岭市绿亿筛网厂",
    "name": "沈云飞",
    "addr": "浙江省台州市温岭市泽国镇后炉村后姜路2-18号",
    "result": "<font color=\"#52f534\">未查到失信记录<\/font>",
    "from": {
      "lon": 121.37318,
      "lat": 28.51891
    },
    "to": {
      "lon": 121.41507,
      "lat": 28.65977
    },
    "color": "78,248,57"
  },
  {
    "com": "台州市路桥明增建材经营部",
    "name": "陈明增",
    "addr": "浙江省台州市路桥区路北街道三角陈村1区109号",
    "result": "<font color=\"#52f534\">未查到失信记录<\/font>",
    "from": {
      "lon": 121.36573,
      "lat": 28.603685
    },
    "to": {
      "lon": 121.41507,
      "lat": 28.65977
    },
    "color": "78,248,57"
  },
  {
    "com": "仙居县张福莲服装店",
    "name": "张福莲",
    "addr": "浙江省台州市仙居县南峰街道商业街61号",
    "result": "<font color=\"#52f534\">未查到失信记录<\/font>",
    "from": {
      "lon": 120.74329,
      "lat": 28.850214
    },
    "to": {
      "lon": 121.41507,
      "lat": 28.65977
    },
    "color": "78,248,57"
  },
  {
    "com": "临海市泳汇日用品商店",
    "name": "李美玲",
    "addr": "浙江省台州市临海市古城街道柏叶西路与云塘路转角街面从西往南第24间",
    "result": "<font color=\"#52f534\">未查到失信记录<\/font>",
    "from": {
      "lon": 121.16242,
      "lat": 28.860365
    },
    "to": {
      "lon": 121.41507,
      "lat": 28.65977
    },
    "color": "78,248,57"
  },
  {
    "com": "温岭市城西贰月二花店",
    "name": "詹灵雪",
    "addr": "浙江省台州市温岭市城西街道中华路702-5号",
    "result": "<font color=\"#52f534\">未查到失信记录<\/font>",
    "from": {
      "lon": 121.36932,
      "lat": 28.395994
    },
    "to": {
      "lon": 121.41507,
      "lat": 28.65977
    },
    "color": "78,248,57"
  },
  {
    "com": "临海市徐道安熟食店",
    "name": "徐道安",
    "addr": "浙江省台州市临海市桃渚镇四岔农贸市场",
    "result": "<font color=\"#52f534\">未查到失信记录<\/font>",
    "from": {
      "lon": 121.59363,
      "lat": 28.82771
    },
    "to": {
      "lon": 121.41507,
      "lat": 28.65977
    },
    "color": "78,248,57"
  },
  {
    "com": "温岭市城北小吕鞋业商行",
    "name": "吕卫红",
    "addr": "浙江省台州市温岭市城北街道振兴西路137号",
    "result": "<font color=\"#52f534\">未查到失信记录<\/font>",
    "from": {
      "lon": 121.3807,
      "lat": 28.454506
    },
    "to": {
      "lon": 121.41507,
      "lat": 28.65977
    },
    "color": "78,248,57"
  },
  {
    "com": "台州市黄岩雁雁模具厂",
    "name": "吴雁",
    "addr": "浙江省台州市黄岩区北城街道北院大道7号",
    "result": "<font color=\"#52f534\">未查到失信记录<\/font>",
    "from": {
      "lon": 121.24185,
      "lat": 28.68122
    },
    "to": {
      "lon": 121.41507,
      "lat": 28.65977
    },
    "color": "78,248,57"
  },
  {
    "com": "台州市黄岩汝慧模具厂",
    "name": "应汝慧",
    "addr": "浙江省台州市黄岩区北城街道北院大道7号",
    "result": "<font color=\"#52f534\">未查到失信记录<\/font>",
    "from": {
      "lon": 121.24185,
      "lat": 28.68122
    },
    "to": {
      "lon": 121.41507,
      "lat": 28.65977
    },
    "color": "78,248,57"
  },
  {
    "com": "温岭市箬横伊米蛋糕店",
    "name": "周文杭",
    "addr": "浙江省台州市温岭市箬横镇南新路4号",
    "result": "<font color=\"#52f534\">未查到失信记录<\/font>",
    "from": {
      "lon": 121.529655,
      "lat": 28.397549
    },
    "to": {
      "lon": 121.41507,
      "lat": 28.65977
    },
    "color": "78,248,57"
  },
  {
    "com": "临海市虞江熟食店",
    "name": "虞江",
    "addr": "浙江省台州市临海市桃渚镇四岔农贸市场",
    "result": "<font color=\"#52f534\">未查到失信记录<\/font>",
    "from": {
      "lon": 121.59363,
      "lat": 28.82771
    },
    "to": {
      "lon": 121.41507,
      "lat": 28.65977
    },
    "color": "78,248,57"
  },
  {
    "com": "台州市路桥鲁国印象餐厅",
    "name": "张宇奇",
    "addr": "浙江省台州市路桥区西路桥大道248号",
    "result": "<font color=\"#52f534\">未查到失信记录<\/font>",
    "from": {
      "lon": 121.370995,
      "lat": 28.591295
    },
    "to": {
      "lon": 121.41507,
      "lat": 28.65977
    },
    "color": "78,248,57"
  },
  {
    "com": "三门县嘉寒货运部",
    "name": "叶少华",
    "addr": "浙江省三门县海游街道下坑村271号",
    "result": "<font color=\"#52f534\">未查到失信记录<\/font>",
    "from": {
      "lon": 121.34964,
      "lat": 29.105328
    },
    "to": {
      "lon": 121.41507,
      "lat": 28.65977
    },
    "color": "78,248,57"
  },
  {
    "com": "台州市黄岩伟锡模具厂",
    "name": "李季翠",
    "addr": "浙江省台州市黄岩区新前街道西范村",
    "result": "<font color=\"#52f534\">未查到失信记录<\/font>",
    "from": {
      "lon": 121.21862,
      "lat": 28.660507
    },
    "to": {
      "lon": 121.41507,
      "lat": 28.65977
    },
    "color": "78,248,57"
  },
  {
    "com": "玉环倾城量贩式娱乐中心",
    "name": "赵雪飞",
    "addr": "浙江省玉环市玉城街道桃花岭村",
    "result": "<font color=\"#52f534\">未查到失信记录<\/font>",
    "from": {
      "lon": 121.24997,
      "lat": 28.130068
    },
    "to": {
      "lon": 121.41507,
      "lat": 28.65977
    },
    "color": "78,248,57"
  },
  {
    "com": "天台县亿方陶瓷商行",
    "name": "方青",
    "addr": "浙江省台州市天台县坦头镇五百村",
    "result": "<font color=\"#52f534\">未查到失信记录<\/font>",
    "from": {
      "lon": 121.142654,
      "lat": 29.109083
    },
    "to": {
      "lon": 121.41507,
      "lat": 28.65977
    },
    "color": "78,248,57"
  },
  {
    "com": "台州市黄岩响铛铛柑桔专业合作社",
    "name": "杨云友",
    "addr": "浙江省台州市黄岩区南城街道蔡家洋村",
    "result": "<font color=\"#52f534\">未查到失信记录<\/font>",
    "from": {
      "lon": 121.27331,
      "lat": 28.61899
    },
    "to": {
      "lon": 121.41507,
      "lat": 28.65977
    },
    "color": "78,248,57"
  },
  {
    "com": "台州市路桥亮章汽车用品店",
    "name": "郑炳城",
    "addr": "浙江省台州市路桥区路南街道张李村新安南街118号",
    "result": "<font color=\"#52f534\">未查到失信记录<\/font>",
    "from": {
      "lon": 121.396324,
      "lat": 28.55726
    },
    "to": {
      "lon": 121.41507,
      "lat": 28.65977
    },
    "color": "78,248,57"
  },
  {
    "com": "台州市椒江益晗电子商务商行",
    "name": "蔡晗",
    "addr": "浙江省台州市椒江区新时代广场4幢1806室",
    "result": "<font color=\"#52f534\">未查到失信记录<\/font>",
    "from": {
      "lon": 121.44595,
      "lat": 28.683523
    },
    "to": {
      "lon": 121.41507,
      "lat": 28.65977
    },
    "color": "78,248,57"
  },
  {
    "com": "天台县张宝家庭农场",
    "name": "张宝",
    "addr": "浙江省台州市天台县三合镇亭头村",
    "result": "<font color=\"#52f534\">未查到失信记录<\/font>",
    "from": {
      "lon": 121.111176,
      "lat": 29.097511
    },
    "to": {
      "lon": 121.41507,
      "lat": 28.65977
    },
    "color": "78,248,57"
  },
  {
    "com": "临海市杨美菊熟食店",
    "name": "杨美菊",
    "addr": "浙江省台州市临海市桃渚镇四岔农贸市场",
    "result": "<font color=\"#52f534\">未查到失信记录<\/font>",
    "from": {
      "lon": 121.59363,
      "lat": 28.82771
    },
    "to": {
      "lon": 121.41507,
      "lat": 28.65977
    },
    "color": "78,248,57"
  },
  {
    "com": "玉环四季鲜果水果店",
    "name": "李作斌",
    "addr": "浙江省玉环市大麦屿街道普南村普南路",
    "result": "<font color=\"#52f534\">未查到失信记录<\/font>",
    "from": {
      "lon": 121.16581,
      "lat": 28.13176
    },
    "to": {
      "lon": 121.41507,
      "lat": 28.65977
    },
    "color": "78,248,57"
  },
  {
    "com": "玉环红玲早餐店",
    "name": "王红玲",
    "addr": "浙江省玉环市楚门镇东门居北大街52号",
    "result": "<font color=\"#52f534\">未查到失信记录<\/font>",
    "from": {
      "lon": 121.305504,
      "lat": 28.223553
    },
    "to": {
      "lon": 121.41507,
      "lat": 28.65977
    },
    "color": "78,248,57"
  },
  {
    "com": "温岭市松门喜利投资咨询服务部",
    "name": "金光辉",
    "addr": "浙江省台州市温岭市松门镇天竺北路1号",
    "result": "<font color=\"#52f534\">未查到失信记录<\/font>",
    "from": {
      "lon": 121.61051,
      "lat": 28.35381
    },
    "to": {
      "lon": 121.41507,
      "lat": 28.65977
    },
    "color": "78,248,57"
  },
  {
    "com": "仙居县仙星普通货运点",
    "name": "潘崇星",
    "addr": "浙江省台州市仙居县白塔镇厚仁中街村阔长街西101号",
    "result": "<font color=\"#52f534\">未查到失信记录<\/font>",
    "from": {
      "lon": 120.607666,
      "lat": 28.756319
    },
    "to": {
      "lon": 121.41507,
      "lat": 28.65977
    },
    "color": "78,248,57"
  },
  {
    "com": "临海市陈美月面条作坊",
    "name": "陈美月",
    "addr": "浙江省台州市临海市河头镇后街3号",
    "result": "<font color=\"#52f534\">未查到失信记录<\/font>",
    "from": {
      "lon": 121.10756,
      "lat": 28.99902
    },
    "to": {
      "lon": 121.41507,
      "lat": 28.65977
    },
    "color": "78,248,57"
  },
  {
    "com": "玉环汪营面馆",
    "name": "王玺",
    "addr": "浙江省玉环市楚门镇小王村楚柚路（汇源超市对面）",
    "result": "<font color=\"#52f534\">未查到失信记录<\/font>",
    "from": {
      "lon": 121.29937,
      "lat": 28.235008
    },
    "to": {
      "lon": 121.41507,
      "lat": 28.65977
    },
    "color": "78,248,57"
  },
  {
    "com": "台州市黄岩林怡机械加工厂",
    "name": "陈贞素",
    "addr": "浙江省台州市黄岩区院桥镇新上蒋村184号",
    "result": "<font color=\"#52f534\">未查到失信记录<\/font>",
    "from": {
      "lon": 121.25998,
      "lat": 28.555405
    },
    "to": {
      "lon": 121.41507,
      "lat": 28.65977
    },
    "color": "78,248,57"
  },
  {
    "com": "三门县鑫琪饰品店",
    "name": "金结平",
    "addr": "浙江省三门县海游街道市场路53号",
    "result": "<font color=\"#52f534\">未查到失信记录<\/font>",
    "from": {
      "lon": 121.38921,
      "lat": 29.122639
    },
    "to": {
      "lon": 121.41507,
      "lat": 28.65977
    },
    "color": "78,248,57"
  },
  {
    "com": "台州市黄岩海风文化用品经营部",
    "name": "林友顺",
    "addr": "浙江省台州市黄岩区院桥镇前郑村588号",
    "result": "<font color=\"#52f534\">未查到失信记录<\/font>",
    "from": {
      "lon": 121.27384,
      "lat": 28.567783
    },
    "to": {
      "lon": 121.41507,
      "lat": 28.65977
    },
    "color": "78,248,57"
  },
  {
    "com": "温岭市大溪富旅便利店",
    "name": "杨焰焰",
    "addr": "浙江省台州市温岭市大溪镇利岙村温岭火车站出站口",
    "result": "<font color=\"#52f534\">未查到失信记录<\/font>",
    "from": {
      "lon": 121.33137,
      "lat": 28.485407
    },
    "to": {
      "lon": 121.41507,
      "lat": 28.65977
    },
    "color": "78,248,57"
  },
  {
    "com": "温岭市石塘艳梨营养健康咨询服务部",
    "name": "陈艳梨",
    "addr": "浙江省台州市温岭市石塘镇天一路36号",
    "result": "<font color=\"#52f534\">未查到失信记录<\/font>",
    "from": {
      "lon": 121.61272,
      "lat": 28.284143
    },
    "to": {
      "lon": 121.41507,
      "lat": 28.65977
    },
    "color": "78,248,57"
  },
  {
    "com": "仙居县锦俊橡胶制品加工厂",
    "name": "陈海军",
    "addr": "浙江省仙居县下各镇黄梁陈村上湾口",
    "result": "<font color=\"#52f534\">未查到失信记录<\/font>",
    "from": {
      "lon": 120.86192,
      "lat": 28.86447
    },
    "to": {
      "lon": 121.41507,
      "lat": 28.65977
    },
    "color": "78,248,57"
  },
  {
    "com": "三门县仲平副食品店",
    "name": "陈仲平",
    "addr": "浙江省台州市三门县浦坝港镇蜍下村西北片78号",
    "result": "<font color=\"#52f534\">未查到失信记录<\/font>",
    "from": {
      "lon": 121.55617,
      "lat": 28.90544
    },
    "to": {
      "lon": 121.41507,
      "lat": 28.65977
    },
    "color": "78,248,57"
  },
  {
    "com": "台州尚莱特新能源有限公司",
    "name": "周招花",
    "addr": "浙江省玉环市清港镇凡宏村",
    "result": "<font color=\"#52f534\">未查到失信记录<\/font>",
    "from": {
      "lon": 121.282104,
      "lat": 28.26911
    },
    "to": {
      "lon": 121.41507,
      "lat": 28.65977
    },
    "color": "78,248,57"
  },
  {
    "com": "台州市黄岩友家房产中介服务部",
    "name": "王啸",
    "addr": "浙江省台州市黄岩区西城街道唐元西路118号",
    "result": "<font color=\"#52f534\">未查到失信记录<\/font>",
    "from": {
      "lon": 121.25267,
      "lat": 28.643494
    },
    "to": {
      "lon": 121.41507,
      "lat": 28.65977
    },
    "color": "78,248,57"
  },
  {
    "com": "三门县海游街道新港村股份经济合作社",
    "name": "任典军",
    "addr": "浙江省三门县海游街道新港村办公楼",
    "result": "<font color=\"#52f534\">未查到失信记录<\/font>",
    "from": {
      "lon": 121.399734,
      "lat": 29.118147
    },
    "to": {
      "lon": 121.41507,
      "lat": 28.65977
    },
    "color": "78,248,57"
  },
  {
    "com": "台州市路桥宏钢矿山工具厂",
    "name": "梁辉",
    "addr": "浙江省台州市路桥区金清镇腰塘村7区7号",
    "result": "<font color=\"#52f534\">未查到失信记录<\/font>",
    "from": {
      "lon": 121.53355,
      "lat": 28.520802
    },
    "to": {
      "lon": 121.41507,
      "lat": 28.65977
    },
    "color": "78,248,57"
  },
  {
    "com": "台州市路桥金庭塑料厂",
    "name": "陈君",
    "addr": "浙江省台州市路桥区金清镇南梁村上梁一区69号",
    "result": "<font color=\"#52f534\">未查到失信记录<\/font>",
    "from": {
      "lon": 121.46856,
      "lat": 28.505068
    },
    "to": {
      "lon": 121.41507,
      "lat": 28.65977
    },
    "color": "78,248,57"
  },
  {
    "com": "台州市路桥迷你服装店",
    "name": "陈赛赛",
    "addr": "浙江省台州市路桥区金清镇勤丰街94号",
    "result": "<font color=\"#52f534\">未查到失信记录<\/font>",
    "from": {
      "lon": 121.52882,
      "lat": 28.50868
    },
    "to": {
      "lon": 121.41507,
      "lat": 28.65977
    },
    "color": "78,248,57"
  },
  {
    "com": "台州市路桥廷福面馆",
    "name": "杨廷福",
    "addr": "浙江省台州市路桥区金清镇卷桥菜市场综合楼西边第五、六间",
    "result": "<font color=\"#52f534\">未查到失信记录<\/font>",
    "from": {
      "lon": 121.52512,
      "lat": 28.513594
    },
    "to": {
      "lon": 121.41507,
      "lat": 28.65977
    },
    "color": "78,248,57"
  },
  {
    "com": "台州市路桥枣红小吃店",
    "name": "刘洪芳",
    "addr": "浙江省台州市路桥区金清镇下梁村菜市场门口南起第4间",
    "result": "<font color=\"#52f534\">未查到失信记录<\/font>",
    "from": {
      "lon": 121.47358,
      "lat": 28.516083
    },
    "to": {
      "lon": 121.41507,
      "lat": 28.65977
    },
    "color": "78,248,57"
  },
  {
    "com": "台州市路桥扬兴机械设备厂",
    "name": "吴杨清",
    "addr": "浙江省台州市路桥区横街镇墙下陶村（台州市路桥路工自动化科技有限公司内）",
    "result": "<font color=\"#52f534\">未查到失信记录<\/font>",
    "from": {
      "lon": 121.44926,
      "lat": 28.539255
    },
    "to": {
      "lon": 121.41507,
      "lat": 28.65977
    },
    "color": "78,248,57"
  },
  {
    "com": "仙居县索悦书画店",
    "name": "吴福华",
    "addr": "浙江省台州市仙居县福应街道广场路10号1幢2单元102室",
    "result": "<font color=\"#52f534\">未查到失信记录<\/font>",
    "from": {
      "lon": 120.751465,
      "lat": 28.865713
    },
    "to": {
      "lon": 121.41507,
      "lat": 28.65977
    },
    "color": "78,248,57"
  },
  {
    "com": "天台县宏合挖机租赁服务部",
    "name": "周国平",
    "addr": "浙江省台州市天台县三合镇下峧村",
    "result": "<font color=\"#52f534\">未查到失信记录<\/font>",
    "from": {
      "lon": 121.14977,
      "lat": 29.079956
    },
    "to": {
      "lon": 121.41507,
      "lat": 28.65977
    },
    "color": "78,248,57"
  },
  {
    "com": "天台县盛泽超市",
    "name": "郭景运",
    "addr": "浙江省台州市天台县平桥镇始丰中路68号",
    "result": "<font color=\"#52f534\">未查到失信记录<\/font>",
    "from": {
      "lon": 120.89494,
      "lat": 29.155252
    },
    "to": {
      "lon": 121.41507,
      "lat": 28.65977
    },
    "color": "78,248,57"
  },
  {
    "com": "天台县早尚早餐店",
    "name": "庞芳芳",
    "addr": "浙江省台州市天台县平桥镇上庞村东林西路15号",
    "result": "<font color=\"#52f534\">未查到失信记录<\/font>",
    "from": {
      "lon": 120.89112,
      "lat": 29.146143
    },
    "to": {
      "lon": 121.41507,
      "lat": 28.65977
    },
    "color": "78,248,57"
  },
  {
    "com": "天台县爱兰小吃店",
    "name": "柯八一",
    "addr": "浙江省台州市天台县平桥镇上庞村林平路131号",
    "result": "<font color=\"#52f534\">未查到失信记录<\/font>",
    "from": {
      "lon": 120.894066,
      "lat": 29.147507
    },
    "to": {
      "lon": 121.41507,
      "lat": 28.65977
    },
    "color": "78,248,57"
  },
  {
    "com": "天台县荣丰炒货店",
    "name": "王继华",
    "addr": "浙江省台州市天台县平镇中心菜场49-51号摊位",
    "result": "<font color=\"#52f534\">未查到失信记录<\/font>",
    "from": {
      "lon": 120.89194,
      "lat": 29.159147
    },
    "to": {
      "lon": 121.41507,
      "lat": 28.65977
    },
    "color": "78,248,57"
  },
  {
    "com": "天台县鑫纳滤布厂",
    "name": "徐春芳",
    "addr": "浙江省台州市天台县平桥镇朝阳西路八巷6-6号",
    "result": "<font color=\"#52f534\">未查到失信记录<\/font>",
    "from": {
      "lon": 120.88812,
      "lat": 29.160013
    },
    "to": {
      "lon": 121.41507,
      "lat": 28.65977
    },
    "color": "78,248,57"
  },
  {
    "com": "天台县润顺生猪养殖场",
    "name": "张式流",
    "addr": "浙江省台州市天台县三州乡黄润坑村村口",
    "result": "<font color=\"#52f534\">未查到失信记录<\/font>",
    "from": {
      "lon": 120.81026,
      "lat": 29.217745
    },
    "to": {
      "lon": 121.41507,
      "lat": 28.65977
    },
    "color": "78,248,57"
  },
  {
    "com": "天台县曹赟服装店",
    "name": "曹赟",
    "addr": "浙江省台州市天台县街头镇嘉图东街72号",
    "result": "<font color=\"#52f534\">未查到失信记录<\/font>",
    "from": {
      "lon": 120.80929,
      "lat": 29.118874
    },
    "to": {
      "lon": 121.41507,
      "lat": 28.65977
    },
    "color": "78,248,57"
  },
  {
    "com": "天台县继统铝合金门窗加工厂",
    "name": "袁继统",
    "addr": "浙江省台州市天台县平桥镇振兴路7号",
    "result": "<font color=\"#52f534\">未查到失信记录<\/font>",
    "from": {
      "lon": 121.02193,
      "lat": 29.137665
    },
    "to": {
      "lon": 121.41507,
      "lat": 28.65977
    },
    "color": "78,248,57"
  },
  {
    "com": "天台县文婷服装店",
    "name": "施文婷",
    "addr": "浙江省台州市天台县平桥镇思泉北路40号",
    "result": "<font color=\"#52f534\">未查到失信记录<\/font>",
    "from": {
      "lon": 120.893326,
      "lat": 29.160606
    },
    "to": {
      "lon": 121.41507,
      "lat": 28.65977
    },
    "color": "78,248,57"
  },
  {
    "com": "天台县丹霞饰品店",
    "name": "许丹霞",
    "addr": "浙江省台州市天台县平桥镇始丰中路139号",
    "result": "<font color=\"#52f534\">未查到失信记录<\/font>",
    "from": {
      "lon": 120.89224,
      "lat": 29.155502
    },
    "to": {
      "lon": 121.41507,
      "lat": 28.65977
    },
    "color": "78,248,57"
  },
  {
    "com": "天台县阿庞理发店",
    "name": "庞统",
    "addr": "浙江省台州市天台县平桥镇朝阳东路39号",
    "result": "<font color=\"#52f534\">未查到失信记录<\/font>",
    "from": {
      "lon": 120.89629,
      "lat": 29.158869
    },
    "to": {
      "lon": 121.41507,
      "lat": 28.65977
    },
    "color": "78,248,57"
  },
  {
    "com": "天台县新艺缝纫机店",
    "name": "胡斌",
    "addr": "浙江省台州市天台县平桥镇始丰中路58号",
    "result": "<font color=\"#52f534\">未查到失信记录<\/font>",
    "from": {
      "lon": 120.89461,
      "lat": 29.155308
    },
    "to": {
      "lon": 121.41507,
      "lat": 28.65977
    },
    "color": "78,248,57"
  },
  {
    "com": "台州宏虎车业科技有限公司",
    "name": "王亮",
    "addr": "台州市黄岩区头陀镇小里灰村",
    "result": "<font color=\"#fb2819\">失信被执行人<\/font>",
    "from": {
      "lon": 121.1532,
      "lat": 28.632372
    },
    "to": {
      "lon": 121.41507,
      "lat": 28.65977
    },
    "color": "250,9,0"
  },
  {
    "com": "天台县百冠建材店",
    "name": "季孔军",
    "addr": "浙江省台州市天台县平桥镇八角亭村（小商口市场内）",
    "result": "<font color=\"#52f534\">未查到失信记录<\/font>",
    "from": {
      "lon": 120.88779,
      "lat": 29.162727
    },
    "to": {
      "lon": 121.41507,
      "lat": 28.65977
    },
    "color": "78,248,57"
  },
  {
    "com": "天台县小玲童装店",
    "name": "陈明",
    "addr": "浙江省台州市天台县平桥镇思泉南路12号",
    "result": "<font color=\"#52f534\">未查到失信记录<\/font>",
    "from": {
      "lon": 120.89312,
      "lat": 29.160862
    },
    "to": {
      "lon": 121.41507,
      "lat": 28.65977
    },
    "color": "78,248,57"
  },
  {
    "com": "天台县皓翔滤布袋加工厂",
    "name": "陈君芬",
    "addr": "浙江省台州市天台县平桥镇下街村（戏台旁）",
    "result": "<font color=\"#52f534\">未查到失信记录<\/font>",
    "from": {
      "lon": 120.89996,
      "lat": 29.159798
    },
    "to": {
      "lon": 121.41507,
      "lat": 28.65977
    },
    "color": "78,248,57"
  },
  {
    "com": "天台县凯娜水果店",
    "name": "李传秀",
    "addr": "浙江省台州市天台县街头镇嘉图东街15号",
    "result": "<font color=\"#52f534\">未查到失信记录<\/font>",
    "from": {
      "lon": 120.80835,
      "lat": 29.11807
    },
    "to": {
      "lon": 121.41507,
      "lat": 28.65977
    },
    "color": "78,248,57"
  },
  {
    "com": "天台县王贵袜业商行",
    "name": "王贵",
    "addr": "浙江省台州市天台县平桥镇始丰中路172号",
    "result": "<font color=\"#52f534\">未查到失信记录<\/font>",
    "from": {
      "lon": 120.896355,
      "lat": 29.154991
    },
    "to": {
      "lon": 121.41507,
      "lat": 28.65977
    },
    "color": "78,248,57"
  },
  {
    "com": "仙居县老沈砂石销售点",
    "name": "沈文伟",
    "addr": "浙江省台州市仙居县湫山乡四都村近禾寺园",
    "result": "<font color=\"#52f534\">未查到失信记录<\/font>",
    "from": {
      "lon": 120.42886,
      "lat": 28.693413
    },
    "to": {
      "lon": 121.41507,
      "lat": 28.65977
    },
    "color": "78,248,57"
  },
  {
    "com": "台州市黄岩水嫩苑保健按摩店",
    "name": "虞广良",
    "addr": "浙江省台州市黄岩区西城街道永宁社区横街三区27幢4单元201室",
    "result": "<font color=\"#52f534\">未查到失信记录<\/font>",
    "from": {
      "lon": 121.26697,
      "lat": 28.649523
    },
    "to": {
      "lon": 121.41507,
      "lat": 28.65977
    },
    "color": "78,248,57"
  },
  {
    "com": "临海市君章饴糖作坊",
    "name": "管君章",
    "addr": "浙江省台州市临海市古城街道伏龙村山西塘北面房屋",
    "result": "<font color=\"#52f534\">未查到失信记录<\/font>",
    "from": {
      "lon": 121.17092,
      "lat": 28.846119
    },
    "to": {
      "lon": 121.41507,
      "lat": 28.65977
    },
    "color": "78,248,57"
  },
  {
    "com": "台州市路桥区俞厨小吃店",
    "name": "俞种儿",
    "addr": "浙江省台州市路桥区路北街道马铺路516号",
    "result": "<font color=\"#52f534\">未查到失信记录<\/font>",
    "from": {
      "lon": 121.376076,
      "lat": 28.591703
    },
    "to": {
      "lon": 121.41507,
      "lat": 28.65977
    },
    "color": "78,248,57"
  },
  {
    "com": "天台县钰盛沙发套加工厂",
    "name": "孙明强",
    "addr": "浙江省台州市天台县平桥镇下街村工业园区（恒泽滤布厂旁）",
    "result": "<font color=\"#52f534\">未查到失信记录<\/font>",
    "from": {
      "lon": 120.89996,
      "lat": 29.159798
    },
    "to": {
      "lon": 121.41507,
      "lat": 28.65977
    },
    "color": "78,248,57"
  },
  {
    "com": "玉环美春建材商行",
    "name": "陈美春",
    "addr": "浙江省玉环市坎门街道双龙路156号",
    "result": "<font color=\"#52f534\">未查到失信记录<\/font>",
    "from": {
      "lon": 121.2729,
      "lat": 28.103949
    },
    "to": {
      "lon": 121.41507,
      "lat": 28.65977
    },
    "color": "78,248,57"
  },
  {
    "com": "温岭市城东飞彬电子元器件商行",
    "name": "杨世彬",
    "addr": "浙江省台州市温岭市城东街道紫皋村紫石路1号",
    "result": "<font color=\"#52f534\">未查到失信记录<\/font>",
    "from": {
      "lon": 121.410736,
      "lat": 28.434769
    },
    "to": {
      "lon": 121.41507,
      "lat": 28.65977
    },
    "color": "78,248,57"
  },
  {
    "com": "温岭市城东食三饭餐饮店",
    "name": "江熙",
    "addr": "浙江省台州市温岭市城东街道下岸渚村A区16幢6号",
    "result": "<font color=\"#52f534\">未查到失信记录<\/font>",
    "from": {
      "lon": 121.396095,
      "lat": 28.399057
    },
    "to": {
      "lon": 121.41507,
      "lat": 28.65977
    },
    "color": "78,248,57"
  },
  {
    "com": "台州市黄岩洛微服装商行",
    "name": "虞泽琼",
    "addr": "浙江省台州市黄岩区东城街道管驿小区6幢1单元901室",
    "result": "<font color=\"#52f534\">未查到失信记录<\/font>",
    "from": {
      "lon": 121.2718,
      "lat": 28.656305
    },
    "to": {
      "lon": 121.41507,
      "lat": 28.65977
    },
    "color": "78,248,57"
  },
  {
    "com": "临海市喜杰理发店",
    "name": "朱喜杰",
    "addr": "浙江省台州市临海市河头镇前山一村337号",
    "result": "<font color=\"#52f534\">未查到失信记录<\/font>",
    "from": {
      "lon": 121.10756,
      "lat": 28.99902
    },
    "to": {
      "lon": 121.41507,
      "lat": 28.65977
    },
    "color": "78,248,57"
  },
  {
    "com": "玉环阿乐小吃店",
    "name": "奚洪波",
    "addr": "浙江省玉环市大麦屿街道铁龙头兴港西路223号",
    "result": "<font color=\"#52f534\">未查到失信记录<\/font>",
    "from": {
      "lon": 121.16564,
      "lat": 28.093424
    },
    "to": {
      "lon": 121.41507,
      "lat": 28.65977
    },
    "color": "78,248,57"
  },
  {
    "com": "温岭市泽国赵健大排档",
    "name": "赵健健",
    "addr": "浙江省台州市温岭市泽国镇台洛一路1号（西起第一间）",
    "result": "<font color=\"#52f534\">未查到失信记录<\/font>",
    "from": {
      "lon": 121.36622,
      "lat": 28.511702
    },
    "to": {
      "lon": 121.41507,
      "lat": 28.65977
    },
    "color": "78,248,57"
  },
  {
    "com": "温岭市横峰小蔡电脑经营部",
    "name": "蔡桂华",
    "addr": "浙江省台州市温岭市横峰街道西塘村42号",
    "result": "<font color=\"#52f534\">未查到失信记录<\/font>",
    "from": {
      "lon": 121.35101,
      "lat": 28.42043
    },
    "to": {
      "lon": 121.41507,
      "lat": 28.65977
    },
    "color": "78,248,57"
  },
  {
    "com": "三门县佳辉副食店",
    "name": "郑有尧",
    "addr": "浙江省台州市三门县珠岙镇小桐岩村147号",
    "result": "<font color=\"#52f534\">未查到失信记录<\/font>",
    "from": {
      "lon": 121.2998,
      "lat": 29.071737
    },
    "to": {
      "lon": 121.41507,
      "lat": 28.65977
    },
    "color": "78,248,57"
  },
  {
    "com": "台州市黄岩福升模具厂",
    "name": "包仙菊",
    "addr": "浙江省台州市黄岩区新前街道西范村",
    "result": "<font color=\"#52f534\">未查到失信记录<\/font>",
    "from": {
      "lon": 121.21862,
      "lat": 28.660507
    },
    "to": {
      "lon": 121.41507,
      "lat": 28.65977
    },
    "color": "78,248,57"
  },
  {
    "com": "台州市黄岩津宇模具加工厂",
    "name": "汪鸿安",
    "addr": "浙江省台州市黄岩区新前街道西范村",
    "result": "<font color=\"#52f534\">未查到失信记录<\/font>",
    "from": {
      "lon": 121.21862,
      "lat": 28.660507
    },
    "to": {
      "lon": 121.41507,
      "lat": 28.65977
    },
    "color": "78,248,57"
  },
  {
    "com": "温岭市滨海诚诺营养健康咨询服务部",
    "name": "瞿仙红",
    "addr": "浙江省台州市温岭市滨海镇滨海北大道58号万通家园5幢二单元403室",
    "result": "<font color=\"#52f534\">未查到失信记录<\/font>",
    "from": {
      "lon": 121.53357,
      "lat": 28.464808
    },
    "to": {
      "lon": 121.41507,
      "lat": 28.65977
    },
    "color": "78,248,57"
  },
  {
    "com": "台州市路桥卡沃洁具厂",
    "name": "丁永林",
    "addr": "浙江省台州市路桥区蓬街镇赛龙村村部北面第九幢",
    "result": "<font color=\"#52f534\">未查到失信记录<\/font>",
    "from": {
      "lon": 121.49444,
      "lat": 28.561926
    },
    "to": {
      "lon": 121.41507,
      "lat": 28.65977
    },
    "color": "78,248,57"
  },
  {
    "com": "台州市路桥吉合办公设备经营部",
    "name": "霍仁华",
    "addr": "浙江省台州市路桥区路桥街道丁岙村文化路58号三楼",
    "result": "<font color=\"#52f534\">未查到失信记录<\/font>",
    "from": {
      "lon": 121.369934,
      "lat": 28.575838
    },
    "to": {
      "lon": 121.41507,
      "lat": 28.65977
    },
    "color": "78,248,57"
  },
  {
    "com": "台州市路桥区馒头宠物用品店",
    "name": "陈安娜",
    "addr": "浙江省台州市路桥区路桥街道丁岙村新安西街373号",
    "result": "<font color=\"#52f534\">未查到失信记录<\/font>",
    "from": {
      "lon": 121.3744,
      "lat": 28.582611
    },
    "to": {
      "lon": 121.41507,
      "lat": 28.65977
    },
    "color": "78,248,57"
  },
  {
    "com": "台州市路桥区罗庆副食品商行",
    "name": "罗峰",
    "addr": "浙江省台州市路桥区浙江东南副食品批发市场50号",
    "result": "<font color=\"#52f534\">未查到失信记录<\/font>",
    "from": {
      "lon": 121.39034,
      "lat": 28.575624
    },
    "to": {
      "lon": 121.41507,
      "lat": 28.65977
    },
    "color": "78,248,57"
  },
  {
    "com": "临海市阿玲棋牌室",
    "name": "胡冬玲",
    "addr": "浙江省台州市临海市杜桥镇沿河东路",
    "result": "<font color=\"#52f534\">未查到失信记录<\/font>",
    "from": {
      "lon": 121.49798,
      "lat": 28.767328
    },
    "to": {
      "lon": 121.41507,
      "lat": 28.65977
    },
    "color": "78,248,57"
  },
  {
    "com": "临海市辰帆服装店",
    "name": "张雪琴",
    "addr": "浙江省台州市临海市白水洋镇山岙村1-415号",
    "result": "<font color=\"#52f534\">未查到失信记录<\/font>",
    "from": {
      "lon": 120.92414,
      "lat": 28.915318
    },
    "to": {
      "lon": 121.41507,
      "lat": 28.65977
    },
    "color": "78,248,57"
  },
  {
    "com": "临海市王先福眼镜配件厂",
    "name": "王先福",
    "addr": "浙江省台州市临海市杜桥镇上墩头村5-169号",
    "result": "<font color=\"#52f534\">未查到失信记录<\/font>",
    "from": {
      "lon": 121.49798,
      "lat": 28.767328
    },
    "to": {
      "lon": 121.41507,
      "lat": 28.65977
    },
    "color": "78,248,57"
  },
  {
    "com": "台州市民帛保安服务有限公司",
    "name": "陈军富",
    "addr": "浙江省台州市温岭市横峰街道横峰村延庆路96号",
    "result": "<font color=\"#52f534\">未查到失信记录<\/font>",
    "from": {
      "lon": 121.35246,
      "lat": 28.438354
    },
    "to": {
      "lon": 121.41507,
      "lat": 28.65977
    },
    "color": "78,248,57"
  },
  {
    "com": "仙居县老兵餐馆",
    "name": "杨文水",
    "addr": "浙江省台州市仙居县安洲街道三桥村三桥头集体钢棚",
    "result": "<font color=\"#52f534\">未查到失信记录<\/font>",
    "from": {
      "lon": 120.718864,
      "lat": 28.858665
    },
    "to": {
      "lon": 121.41507,
      "lat": 28.65977
    },
    "color": "78,248,57"
  },
  {
    "com": "临海市小马床上用品店",
    "name": "马海英",
    "addr": "浙江省台州市临海市杜桥镇马宅村4-57号",
    "result": "<font color=\"#52f534\">未查到失信记录<\/font>",
    "from": {
      "lon": 121.412796,
      "lat": 28.791056
    },
    "to": {
      "lon": 121.41507,
      "lat": 28.65977
    },
    "color": "78,248,57"
  },
  {
    "com": "台州市椒江林安手机店",
    "name": "林超",
    "addr": "浙江省台州市椒江区葭沚街道乌石小区31幢1-2号",
    "result": "<font color=\"#52f534\">未查到失信记录<\/font>",
    "from": {
      "lon": 121.41578,
      "lat": 28.670563
    },
    "to": {
      "lon": 121.41507,
      "lat": 28.65977
    },
    "color": "78,248,57"
  },
  {
    "com": "临海市李先逢豆腐加工厂",
    "name": "李先逢",
    "addr": "浙江省台州市临海市桃渚镇老厂基村湖岸路161号",
    "result": "<font color=\"#52f534\">未查到失信记录<\/font>",
    "from": {
      "lon": 121.59682,
      "lat": 28.826866
    },
    "to": {
      "lon": 121.41507,
      "lat": 28.65977
    },
    "color": "78,248,57"
  },
  {
    "com": "台州市黄岩起创模具厂",
    "name": "李德培",
    "addr": "浙江省台州市黄岩区东城街道印山路66号",
    "result": "<font color=\"#52f534\">未查到失信记录<\/font>",
    "from": {
      "lon": 121.27528,
      "lat": 28.64142
    },
    "to": {
      "lon": 121.41507,
      "lat": 28.65977
    },
    "color": "78,248,57"
  },
  {
    "com": "临海市燕青液压配件店",
    "name": "孙燕青",
    "addr": "浙江省台州市临海市大田街道砟溪头村（加油站边）",
    "result": "<font color=\"#52f534\">未查到失信记录<\/font>",
    "from": {
      "lon": 121.49185,
      "lat": 28.786505
    },
    "to": {
      "lon": 121.41507,
      "lat": 28.65977
    },
    "color": "78,248,57"
  },
  {
    "com": "台州市黄岩远闻灯饰商行",
    "name": "陈燕",
    "addr": "浙江省台州市黄岩区东城街道环城东路225号(装璜市场内)",
    "result": "<font color=\"#52f534\">未查到失信记录<\/font>",
    "from": {
      "lon": 121.2766,
      "lat": 28.655907
    },
    "to": {
      "lon": 121.41507,
      "lat": 28.65977
    },
    "color": "78,248,57"
  },
  {
    "com": "台州市黄岩云福塑料厂",
    "name": "胡妙法",
    "addr": "浙江省台州市黄岩区东城街道王东路65弄8-1号",
    "result": "<font color=\"#52f534\">未查到失信记录<\/font>",
    "from": {
      "lon": 121.28707,
      "lat": 28.664482
    },
    "to": {
      "lon": 121.41507,
      "lat": 28.65977
    },
    "color": "78,248,57"
  },
  {
    "com": "台州市黄岩纤逸鞋厂",
    "name": "蒋立军",
    "addr": "浙江省台州市黄岩区江口街道东岙村",
    "result": "<font color=\"#52f534\">未查到失信记录<\/font>",
    "from": {
      "lon": 121.333954,
      "lat": 28.655294
    },
    "to": {
      "lon": 121.41507,
      "lat": 28.65977
    },
    "color": "78,248,57"
  },
  {
    "com": "浙江民泰商业银行股份有限公司天台新城社区支行",
    "name": "姚幽祉",
    "addr": "浙江省台州市天台县始丰街道财富路33、35、37号",
    "result": "<font color=\"#52f534\">未查到失信记录<\/font>",
    "from": {
      "lon": 121.01467,
      "lat": 29.153553
    },
    "to": {
      "lon": 121.41507,
      "lat": 28.65977
    },
    "color": "78,248,57"
  },
  {
    "com": "天台鼎皓汽车用品有限公司",
    "name": "周宾飞",
    "addr": "浙江省台州市天台县坦头镇市山村3组3号",
    "result": "<font color=\"#52f534\">未查到失信记录<\/font>",
    "from": {
      "lon": 120.985565,
      "lat": 29.15178
    },
    "to": {
      "lon": 121.41507,
      "lat": 28.65977
    },
    "color": "78,248,57"
  },
  {
    "com": "天台军辰汽车用品有限公司",
    "name": "刘军",
    "addr": "浙江省台州市天台县石梁镇龙皇堂路38号",
    "result": "<font color=\"#52f534\">未查到失信记录<\/font>",
    "from": {
      "lon": 121.05711,
      "lat": 29.245373
    },
    "to": {
      "lon": 121.41507,
      "lat": 28.65977
    },
    "color": "78,248,57"
  },
  {
    "com": "台州市黄岩博昊文化用品厂",
    "name": "尤福良",
    "addr": "浙江省台州市黄岩区院桥镇胡家桥村马脚踏85号",
    "result": "<font color=\"#52f534\">未查到失信记录<\/font>",
    "from": {
      "lon": 121.29966,
      "lat": 28.560017
    },
    "to": {
      "lon": 121.41507,
      "lat": 28.65977
    },
    "color": "78,248,57"
  },
  {
    "com": "天台之昂电子商务有限公司",
    "name": "陈芬芬",
    "addr": "浙江省台州市天台县赤城街道麻车王路27号",
    "result": "<font color=\"#52f534\">未查到失信记录<\/font>",
    "from": {
      "lon": 121.02951,
      "lat": 29.144676
    },
    "to": {
      "lon": 121.41507,
      "lat": 28.65977
    },
    "color": "78,248,57"
  },
  {
    "com": "台州市黄岩陆福模具厂",
    "name": "陆伟",
    "addr": "浙江省台州市黄岩区新前街道西范村",
    "result": "<font color=\"#52f534\">未查到失信记录<\/font>",
    "from": {
      "lon": 121.21862,
      "lat": 28.660507
    },
    "to": {
      "lon": 121.41507,
      "lat": 28.65977
    },
    "color": "78,248,57"
  },
  {
    "com": "天台聚缘滤料有限公司",
    "name": "余冬俭",
    "addr": "浙江省台州市天台县平桥镇始丰中路180号",
    "result": "<font color=\"#52f534\">未查到失信记录<\/font>",
    "from": {
      "lon": 120.897316,
      "lat": 29.15497
    },
    "to": {
      "lon": 121.41507,
      "lat": 28.65977
    },
    "color": "78,248,57"
  },
  {
    "com": "天台创泽贸易有限公司",
    "name": "许昌林",
    "addr": "浙江省台州市天台县坦头镇天台金恒德中国汽车用品城D1-420号",
    "result": "<font color=\"#52f534\">未查到失信记录<\/font>",
    "from": {
      "lon": 121.136185,
      "lat": 29.113407
    },
    "to": {
      "lon": 121.41507,
      "lat": 28.65977
    },
    "color": "78,248,57"
  },
  {
    "com": "温岭市大溪轩英艺术培训工作室",
    "name": "赵文彬",
    "addr": "浙江省台州市温岭市大溪镇环城北路505号",
    "result": "<font color=\"#52f534\">未查到失信记录<\/font>",
    "from": {
      "lon": 121.27486,
      "lat": 28.472374
    },
    "to": {
      "lon": 121.41507,
      "lat": 28.65977
    },
    "color": "78,248,57"
  },
  {
    "com": "临海市净梵奶茶店",
    "name": "吕乾雄",
    "addr": "浙江省台州市临海市杜桥镇杜川路318号",
    "result": "<font color=\"#52f534\">未查到失信记录<\/font>",
    "from": {
      "lon": 121.50628,
      "lat": 28.76604
    },
    "to": {
      "lon": 121.41507,
      "lat": 28.65977
    },
    "color": "78,248,57"
  },
  {
    "com": "三门县天东交通设施经营部",
    "name": "陈强",
    "addr": "浙江省三门县珠岙镇东谢村",
    "result": "<font color=\"#52f534\">未查到失信记录<\/font>",
    "from": {
      "lon": 121.23625,
      "lat": 29.048145
    },
    "to": {
      "lon": 121.41507,
      "lat": 28.65977
    },
    "color": "78,248,57"
  },
  {
    "com": "玉环桂梅保洁服务部",
    "name": "凌宏冲",
    "addr": "浙江省玉环市楚门镇龙王村",
    "result": "<font color=\"#52f534\">未查到失信记录<\/font>",
    "from": {
      "lon": 121.29424,
      "lat": 28.216179
    },
    "to": {
      "lon": 121.41507,
      "lat": 28.65977
    },
    "color": "78,248,57"
  },
  {
    "com": "仙居县良丰宾馆",
    "name": "应祖伟",
    "addr": "浙江省仙居县下各镇良丰路30号",
    "result": "<font color=\"#52f534\">未查到失信记录<\/font>",
    "from": {
      "lon": 120.86192,
      "lat": 28.86447
    },
    "to": {
      "lon": 121.41507,
      "lat": 28.65977
    },
    "color": "78,248,57"
  },
  {
    "com": "临海市世强编藤加工厂",
    "name": "吴世强",
    "addr": "浙江省台州市临海市东塍镇隔溪村（王赛超市旁）",
    "result": "<font color=\"#52f534\">未查到失信记录<\/font>",
    "from": {
      "lon": 121.302124,
      "lat": 28.938389
    },
    "to": {
      "lon": 121.41507,
      "lat": 28.65977
    },
    "color": "78,248,57"
  },
  {
    "com": "台州市黄岩宸沛矿山机械配件经营部",
    "name": "王湘汁",
    "addr": "浙江省台州市黄岩区南城街道璜山头村2区23号",
    "result": "<font color=\"#52f534\">未查到失信记录<\/font>",
    "from": {
      "lon": 121.27331,
      "lat": 28.61899
    },
    "to": {
      "lon": 121.41507,
      "lat": 28.65977
    },
    "color": "78,248,57"
  },
  {
    "com": "台州市黄岩简恩塑料厂",
    "name": "王石娣",
    "addr": "浙江省台州市黄岩区新前街道泾岸村",
    "result": "<font color=\"#52f534\">未查到失信记录<\/font>",
    "from": {
      "lon": 121.214615,
      "lat": 28.669247
    },
    "to": {
      "lon": 121.41507,
      "lat": 28.65977
    },
    "color": "78,248,57"
  },
  {
    "com": "台州市路桥韦柏门窗商行",
    "name": "童跃斌",
    "addr": "浙江省台州居家之家家居建材广场二层2-034号",
    "result": "<font color=\"#52f534\">未查到失信记录<\/font>",
    "from": {
      "lon": 120.86243,
      "lat": 28.634007
    },
    "to": {
      "lon": 121.41507,
      "lat": 28.65977
    },
    "color": "78,248,57"
  },
  {
    "com": "台州泰古芈麻鞋业有限公司",
    "name": "卢亮",
    "addr": "浙江省台州市椒江区华景村木材市场内",
    "result": "<font color=\"#52f534\">未查到失信记录<\/font>",
    "from": {
      "lon": 121.434906,
      "lat": 28.680079
    },
    "to": {
      "lon": 121.41507,
      "lat": 28.65977
    },
    "color": "78,248,57"
  },
  {
    "com": "温岭市城东巴渝人家川菜馆",
    "name": "刘金银",
    "addr": "浙江省台州市温岭市城东街道汇头王村57-10号西边二间",
    "result": "<font color=\"#52f534\">未查到失信记录<\/font>",
    "from": {
      "lon": 121.39109,
      "lat": 28.40499
    },
    "to": {
      "lon": 121.41507,
      "lat": 28.65977
    },
    "color": "78,248,57"
  },
  {
    "com": "台州市椒江阿超修脚房",
    "name": "穰超",
    "addr": "浙江省台州市椒江区洪家街道西王村白云山南路983号",
    "result": "<font color=\"#52f534\">未查到失信记录<\/font>",
    "from": {
      "lon": 121.39223,
      "lat": 28.605385
    },
    "to": {
      "lon": 121.41507,
      "lat": 28.65977
    },
    "color": "78,248,57"
  },
  {
    "com": "临海市桔子花开食品商行",
    "name": "杨静",
    "addr": "浙江省台州市临海市杜桥镇环城南路370号",
    "result": "<font color=\"#52f534\">未查到失信记录<\/font>",
    "from": {
      "lon": 121.50642,
      "lat": 28.765291
    },
    "to": {
      "lon": 121.41507,
      "lat": 28.65977
    },
    "color": "78,248,57"
  },
  {
    "com": "临海市美宸食品商行",
    "name": "郑焦萍",
    "addr": "浙江省台州市临海市杜桥镇杜川路69号",
    "result": "<font color=\"#52f534\">未查到失信记录<\/font>",
    "from": {
      "lon": 121.50297,
      "lat": 28.77193
    },
    "to": {
      "lon": 121.41507,
      "lat": 28.65977
    },
    "color": "78,248,57"
  },
  {
    "com": "仙居县安盾保安服务有限公司",
    "name": "朱建飞",
    "addr": "浙江省台州市仙居县福应街道临溪路155号",
    "result": "<font color=\"#52f534\">未查到失信记录<\/font>",
    "from": {
      "lon": 120.73043,
      "lat": 28.881416
    },
    "to": {
      "lon": 121.41507,
      "lat": 28.65977
    },
    "color": "78,248,57"
  },
  {
    "com": "临海市日创眼镜有限公司",
    "name": "兰刚",
    "addr": "浙江省台州市临海市杜桥镇汾东村",
    "result": "<font color=\"#52f534\">未查到失信记录<\/font>",
    "from": {
      "lon": 121.48516,
      "lat": 28.74925
    },
    "to": {
      "lon": 121.41507,
      "lat": 28.65977
    },
    "color": "78,248,57"
  },
  {
    "com": "台州市路桥侦绽美容美发店",
    "name": "罗金婷",
    "addr": "浙江省台州市路桥区蓬街镇小伍份村一区168号",
    "result": "<font color=\"#52f534\">未查到失信记录<\/font>",
    "from": {
      "lon": 121.46563,
      "lat": 28.554382
    },
    "to": {
      "lon": 121.41507,
      "lat": 28.65977
    },
    "color": "78,248,57"
  },
  {
    "com": "仙居县暖居客栈",
    "name": "王志洪",
    "addr": "浙江省台州市仙居县淡竹乡下叶村叶宅自然村36号",
    "result": "<font color=\"#52f534\">未查到失信记录<\/font>",
    "from": {
      "lon": 120.57559,
      "lat": 28.713766
    },
    "to": {
      "lon": 121.41507,
      "lat": 28.65977
    },
    "color": "78,248,57"
  },
  {
    "com": "临海市恒鑫眼镜厂",
    "name": "李永平",
    "addr": "浙江省台州市临海市杜桥镇胜利村",
    "result": "<font color=\"#52f534\">未查到失信记录<\/font>",
    "from": {
      "lon": 121.485054,
      "lat": 28.738365
    },
    "to": {
      "lon": 121.41507,
      "lat": 28.65977
    },
    "color": "78,248,57"
  },
  {
    "com": "台州市黄岩歆轶模具加工厂",
    "name": "卢迪",
    "addr": "浙江省台州市黄岩区新前街道西范村新南路168号",
    "result": "<font color=\"#52f534\">未查到失信记录<\/font>",
    "from": {
      "lon": 121.21829,
      "lat": 28.662361
    },
    "to": {
      "lon": 121.41507,
      "lat": 28.65977
    },
    "color": "78,248,57"
  },
  {
    "com": "三门县王乾禹青蟹经营部",
    "name": "王乾禹",
    "addr": "浙江省三门县海润街道朝阳路33号（三门县青蟹批发交易中心A028号摊位）",
    "result": "<font color=\"#52f534\">未查到失信记录<\/font>",
    "from": {
      "lon": 121.42944,
      "lat": 29.10421
    },
    "to": {
      "lon": 121.41507,
      "lat": 28.65977
    },
    "color": "78,248,57"
  },
  {
    "com": "台州市黄岩第八感虚拟现实体验馆",
    "name": "张海豪",
    "addr": "浙江省台州市黄岩区北城街道王林村（台州火车站内）",
    "result": "<font color=\"#52f534\">未查到失信记录<\/font>",
    "from": {
      "lon": 121.29621,
      "lat": 28.692076
    },
    "to": {
      "lon": 121.41507,
      "lat": 28.65977
    },
    "color": "78,248,57"
  },
  {
    "com": "温岭市城东祯魅服装店",
    "name": "曾祯",
    "addr": "浙江省台州市温岭市城东街道汇头王村A12幢90号北间",
    "result": "<font color=\"#52f534\">未查到失信记录<\/font>",
    "from": {
      "lon": 121.38983,
      "lat": 28.412466
    },
    "to": {
      "lon": 121.41507,
      "lat": 28.65977
    },
    "color": "78,248,57"
  },
  {
    "com": "三门县全成体育用品经营部",
    "name": "金玉华",
    "addr": "浙江省三门县海游街道海游街18号",
    "result": "<font color=\"#52f534\">未查到失信记录<\/font>",
    "from": {
      "lon": 121.38732,
      "lat": 29.120739
    },
    "to": {
      "lon": 121.41507,
      "lat": 28.65977
    },
    "color": "78,248,57"
  },
  {
    "com": "温岭芘丽芙整形美容医院有限公司",
    "name": "毛捍东",
    "addr": "浙江省台州市温岭市太平街道万泉东路369号（仅限办公用）",
    "result": "<font color=\"#52f534\">未查到失信记录<\/font>",
    "from": {
      "lon": 121.39596,
      "lat": 28.372435
    },
    "to": {
      "lon": 121.41507,
      "lat": 28.65977
    },
    "color": "78,248,57"
  },
  {
    "com": "温岭市松门译鸿挖土机租赁服务部",
    "name": "徐帆",
    "addr": "浙江省台州市温岭市松门镇宝川路12号",
    "result": "<font color=\"#52f534\">未查到失信记录<\/font>",
    "from": {
      "lon": 121.573326,
      "lat": 28.350952
    },
    "to": {
      "lon": 121.41507,
      "lat": 28.65977
    },
    "color": "78,248,57"
  },
  {
    "com": "台州市路桥喆晟日用品商行",
    "name": "罗晶玻",
    "addr": "浙江省台州市路桥区泰隆街1288-1号",
    "result": "<font color=\"#52f534\">未查到失信记录<\/font>",
    "from": {
      "lon": 121.39854,
      "lat": 28.59088
    },
    "to": {
      "lon": 121.41507,
      "lat": 28.65977
    },
    "color": "78,248,57"
  },
  {
    "com": "台州市创安房屋拆除有限公司",
    "name": "叶再琴",
    "addr": "浙江省台州市椒江区章安街道章安街354号",
    "result": "<font color=\"#52f534\">未查到失信记录<\/font>",
    "from": {
      "lon": 121.4176,
      "lat": 28.719105
    },
    "to": {
      "lon": 121.41507,
      "lat": 28.65977
    },
    "color": "78,248,57"
  },
  {
    "com": "临海市王良武卷烟店",
    "name": "王良武",
    "addr": "浙江省台州市临海市桃渚镇石仓村62号",
    "result": "<font color=\"#52f534\">未查到失信记录<\/font>",
    "from": {
      "lon": 121.63401,
      "lat": 28.817505
    },
    "to": {
      "lon": 121.41507,
      "lat": 28.65977
    },
    "color": "78,248,57"
  },
  {
    "com": "临海市何万永彩灯加工厂",
    "name": "何万永",
    "addr": "浙江省台州市临海市江南街道春和路309号",
    "result": "<font color=\"#52f534\">未查到失信记录<\/font>",
    "from": {
      "lon": 121.13111,
      "lat": 28.833544
    },
    "to": {
      "lon": 121.41507,
      "lat": 28.65977
    },
    "color": "78,248,57"
  },
  {
    "com": "温岭市泽国车骑士汽车美容服务部",
    "name": "刘涛",
    "addr": "浙江省台州市温岭市泽国镇樟皇村C区165-166号（前面间）",
    "result": "<font color=\"#52f534\">未查到失信记录<\/font>",
    "from": {
      "lon": 121.390785,
      "lat": 28.48331
    },
    "to": {
      "lon": 121.41507,
      "lat": 28.65977
    },
    "color": "78,248,57"
  },
  {
    "com": "台州市黄岩小利装潢服务部",
    "name": "徐利平",
    "addr": "浙江省台州市黄岩区院桥镇樟前村樟树229号",
    "result": "<font color=\"#52f534\">未查到失信记录<\/font>",
    "from": {
      "lon": 121.22621,
      "lat": 28.539412
    },
    "to": {
      "lon": 121.41507,
      "lat": 28.65977
    },
    "color": "78,248,57"
  },
  {
    "com": "温岭市城东烹泰厨火锅店",
    "name": "赵咸峰",
    "addr": "浙江省台州市温岭市城东街道下保路139号一楼",
    "result": "<font color=\"#52f534\">未查到失信记录<\/font>",
    "from": {
      "lon": 121.3914,
      "lat": 28.397306
    },
    "to": {
      "lon": 121.41507,
      "lat": 28.65977
    },
    "color": "78,248,57"
  },
  {
    "com": "台州市黄岩永亿模具加工厂",
    "name": "付建永",
    "addr": "浙江省台州市黄岩区西城街道岙岸村",
    "result": "<font color=\"#52f534\">未查到失信记录<\/font>",
    "from": {
      "lon": 121.24797,
      "lat": 28.6585
    },
    "to": {
      "lon": 121.41507,
      "lat": 28.65977
    },
    "color": "78,248,57"
  },
  {
    "com": "玉环尊尼理发店",
    "name": "刘诗梅",
    "addr": "浙江省玉环市玉城街道环西村环西路70号",
    "result": "<font color=\"#52f534\">未查到失信记录<\/font>",
    "from": {
      "lon": 121.24962,
      "lat": 28.107864
    },
    "to": {
      "lon": 121.41507,
      "lat": 28.65977
    },
    "color": "78,248,57"
  },
  {
    "com": "台州市黄岩晶研化妆品店",
    "name": "王雪林",
    "addr": "浙江省台州市黄岩区北洋镇小里桥村136号",
    "result": "<font color=\"#52f534\">未查到失信记录<\/font>",
    "from": {
      "lon": 121.11802,
      "lat": 28.620703
    },
    "to": {
      "lon": 121.41507,
      "lat": 28.65977
    },
    "color": "78,248,57"
  },
  {
    "com": "玉环伟兵床上用品商行",
    "name": "毛伟兵",
    "addr": "浙江省玉环市玉城街道长兴路",
    "result": "<font color=\"#52f534\">未查到失信记录<\/font>",
    "from": {
      "lon": 121.23943,
      "lat": 28.132187
    },
    "to": {
      "lon": 121.41507,
      "lat": 28.65977
    },
    "color": "78,248,57"
  },
  {
    "com": "仙居县金尚美容美发店",
    "name": "赵建勇",
    "addr": "浙江省台州市仙居县福应街道塔山沿路10号",
    "result": "<font color=\"#52f534\">未查到失信记录<\/font>",
    "from": {
      "lon": 120.74738,
      "lat": 28.866583
    },
    "to": {
      "lon": 121.41507,
      "lat": 28.65977
    },
    "color": "78,248,57"
  },
  {
    "com": "玉环巨悦机械厂",
    "name": "叶潘吉",
    "addr": "浙江省玉环市玉城街道城兴路37号",
    "result": "<font color=\"#52f534\">未查到失信记录<\/font>",
    "from": {
      "lon": 121.267044,
      "lat": 28.122292
    },
    "to": {
      "lon": 121.41507,
      "lat": 28.65977
    },
    "color": "78,248,57"
  },
  {
    "com": "玉环骏浩餐饮店",
    "name": "刘章博",
    "addr": "浙江省玉环市玉城街道渔岙村小广路22弄20号",
    "result": "<font color=\"#52f534\">未查到失信记录<\/font>",
    "from": {
      "lon": 121.241,
      "lat": 28.117205
    },
    "to": {
      "lon": 121.41507,
      "lat": 28.65977
    },
    "color": "78,248,57"
  },
  {
    "com": "浙江明亮新能源有限公司",
    "name": "谢荷芳",
    "addr": "浙江省玉环市楚门镇云港大厦五楼（中山村）",
    "result": "<font color=\"#52f534\">未查到失信记录<\/font>",
    "from": {
      "lon": 121.286995,
      "lat": 28.219149
    },
    "to": {
      "lon": 121.41507,
      "lat": 28.65977
    },
    "color": "78,248,57"
  },
  {
    "com": "温岭市城南昶羽塑料零件厂",
    "name": "王魏文",
    "addr": "浙江省台州市温岭市城南镇峻岭村18号",
    "result": "<font color=\"#52f534\">未查到失信记录<\/font>",
    "from": {
      "lon": 121.44669,
      "lat": 28.328125
    },
    "to": {
      "lon": 121.41507,
      "lat": 28.65977
    },
    "color": "78,248,57"
  },
  {
    "com": "玉环林英美容院",
    "name": "林英",
    "addr": "浙江省玉环市玉城街道广陵路52号",
    "result": "<font color=\"#52f534\">未查到失信记录<\/font>",
    "from": {
      "lon": 121.238716,
      "lat": 28.139057
    },
    "to": {
      "lon": 121.41507,
      "lat": 28.65977
    },
    "color": "78,248,57"
  },
  {
    "com": "台州市东达保安服务有限公司",
    "name": "钱福杰",
    "addr": "浙江省台州市经济开发区滨海工业园区海丰路1500号",
    "result": "<font color=\"#52f534\">未查到失信记录<\/font>",
    "from": {
      "lon": 121.532555,
      "lat": 28.594374
    },
    "to": {
      "lon": 121.41507,
      "lat": 28.65977
    },
    "color": "78,248,57"
  },
  {
    "com": "玉环柯布迪烧烤店",
    "name": "武明明",
    "addr": "浙江省玉环市玉城街道渔岙村小广路22弄20号",
    "result": "<font color=\"#52f534\">未查到失信记录<\/font>",
    "from": {
      "lon": 121.241,
      "lat": 28.117205
    },
    "to": {
      "lon": 121.41507,
      "lat": 28.65977
    },
    "color": "78,248,57"
  },
  {
    "com": "玉环扬耀模具厂",
    "name": "陆翠维",
    "addr": "浙江省玉环市玉城街道解放塘农场",
    "result": "<font color=\"#52f534\">未查到失信记录<\/font>",
    "from": {
      "lon": 121.26787,
      "lat": 28.115181
    },
    "to": {
      "lon": 121.41507,
      "lat": 28.65977
    },
    "color": "78,248,57"
  },
  {
    "com": "玉环袖色服装店",
    "name": "周虹",
    "addr": "浙江省玉环市玉城街道康育南路182号（一楼）",
    "result": "<font color=\"#52f534\">未查到失信记录<\/font>",
    "from": {
      "lon": 121.240105,
      "lat": 28.1279
    },
    "to": {
      "lon": 121.41507,
      "lat": 28.65977
    },
    "color": "78,248,57"
  },
  {
    "com": "玉环前锦橡胶制品厂",
    "name": "郑晓峰",
    "addr": "浙江省玉环市玉城街道城兴路3号",
    "result": "<font color=\"#52f534\">未查到失信记录<\/font>",
    "from": {
      "lon": 121.27062,
      "lat": 28.119802
    },
    "to": {
      "lon": 121.41507,
      "lat": 28.65977
    },
    "color": "78,248,57"
  },
  {
    "com": "玉环板尚餐饮店",
    "name": "林琴方",
    "addr": "浙江省玉环市玉城街道长康路76号",
    "result": "<font color=\"#52f534\">未查到失信记录<\/font>",
    "from": {
      "lon": 121.23933,
      "lat": 28.129194
    },
    "to": {
      "lon": 121.41507,
      "lat": 28.65977
    },
    "color": "78,248,57"
  },
  {
    "com": "台州市路桥意达土特产商行",
    "name": "郑燕贞",
    "addr": "浙江省台州市路桥区路南街道南吉利大道75号秀水铭苑G区39幢机场路164号",
    "result": "<font color=\"#52f534\">未查到失信记录<\/font>",
    "from": {
      "lon": 121.404526,
      "lat": 28.56876
    },
    "to": {
      "lon": 121.41507,
      "lat": 28.65977
    },
    "color": "78,248,57"
  },
  {
    "com": "台州市路桥点滴香小吃店",
    "name": "罗稀曦",
    "addr": "浙江省台州市路桥区路北街道腾达路半岛花园7幢腾达路338号-47室",
    "result": "<font color=\"#52f534\">未查到失信记录<\/font>",
    "from": {
      "lon": 121.37991,
      "lat": 28.593946
    },
    "to": {
      "lon": 121.41507,
      "lat": 28.65977
    },
    "color": "78,248,57"
  },
  {
    "com": "台州市黄岩云剑木材经营部",
    "name": "胡云剑",
    "addr": "浙江省台州市黄岩区高桥街道前店村高丰东路116号",
    "result": "<font color=\"#52f534\">未查到失信记录<\/font>",
    "from": {
      "lon": 121.24007,
      "lat": 28.591787
    },
    "to": {
      "lon": 121.41507,
      "lat": 28.65977
    },
    "color": "78,248,57"
  },
  {
    "com": "临海市流连百货超市",
    "name": "王菊林",
    "addr": "浙江省台州市临海头门港新区吉利花园60幢34、36号",
    "result": "<font color=\"#52f534\">未查到失信记录<\/font>",
    "from": {
      "lon": 121.22192,
      "lat": 28.85739
    },
    "to": {
      "lon": 121.41507,
      "lat": 28.65977
    },
    "color": "78,248,57"
  },
  {
    "com": "浙江多丰投资管理有限公司",
    "name": "项学军",
    "addr": "临海市杜桥镇学前路19号-29号",
    "result": "<font color=\"#fb2819\">失信被执行人<\/font>",
    "from": {
      "lon": 121.51775,
      "lat": 28.76806
    },
    "to": {
      "lon": 121.41507,
      "lat": 28.65977
    },
    "color": "250,9,0"
  },
  {
    "com": "台州市路桥林苗水饺店",
    "name": "夏兴林",
    "addr": "浙江省台州市路桥区路南街道上张村二区4号",
    "result": "<font color=\"#52f534\">未查到失信记录<\/font>",
    "from": {
      "lon": 121.41535,
      "lat": 28.577353
    },
    "to": {
      "lon": 121.41507,
      "lat": 28.65977
    },
    "color": "78,248,57"
  },
  {
    "com": "仙居县妩媚天翼手机专营店",
    "name": "连妩媚",
    "addr": "浙江省仙居县朱溪镇穿镇中路11号",
    "result": "<font color=\"#52f534\">未查到失信记录<\/font>",
    "from": {
      "lon": 120.844475,
      "lat": 28.730694
    },
    "to": {
      "lon": 121.41507,
      "lat": 28.65977
    },
    "color": "78,248,57"
  },
  {
    "com": "仙居县云杰农场",
    "name": "王杰",
    "addr": "浙江省台州市仙居县双庙乡寺前村紫金庵42号",
    "result": "<font color=\"#52f534\">未查到失信记录<\/font>",
    "from": {
      "lon": 120.86947,
      "lat": 28.752949
    },
    "to": {
      "lon": 121.41507,
      "lat": 28.65977
    },
    "color": "78,248,57"
  },
  {
    "com": "温岭市泽国秀利足浴店",
    "name": "陈利",
    "addr": "浙江省台州市温岭市泽国镇夹屿村联夹大道12号",
    "result": "<font color=\"#52f534\">未查到失信记录<\/font>",
    "from": {
      "lon": 121.395454,
      "lat": 28.472454
    },
    "to": {
      "lon": 121.41507,
      "lat": 28.65977
    },
    "color": "78,248,57"
  },
  {
    "com": "温岭市城东鹿谷奶茶店",
    "name": "余聪聪",
    "addr": "浙江省台州市温岭市城东街道汇头王村A区19幢165号一楼南边间",
    "result": "<font color=\"#52f534\">未查到失信记录<\/font>",
    "from": {
      "lon": 121.39035,
      "lat": 28.405489
    },
    "to": {
      "lon": 121.41507,
      "lat": 28.65977
    },
    "color": "78,248,57"
  },
  {
    "com": "温岭市足轩鞋业有限公司",
    "name": "徐信",
    "addr": "浙江省台州市温岭市城北街道南山闸村方家小区10幢1-2号",
    "result": "<font color=\"#52f534\">未查到失信记录<\/font>",
    "from": {
      "lon": 121.39439,
      "lat": 28.44453
    },
    "to": {
      "lon": 121.41507,
      "lat": 28.65977
    },
    "color": "78,248,57"
  },
  {
    "com": "玉环方度塑胶厂",
    "name": "狄灵肖",
    "addr": "浙江省玉环市清港镇柏台村后郑路",
    "result": "<font color=\"#52f534\">未查到失信记录<\/font>",
    "from": {
      "lon": 121.34569,
      "lat": 28.3015
    },
    "to": {
      "lon": 121.41507,
      "lat": 28.65977
    },
    "color": "78,248,57"
  },
  {
    "com": "玉环市宏展服装经营部",
    "name": "胡仁英",
    "addr": "浙江省玉环市清港镇垟根村垟根路3号对面",
    "result": "<font color=\"#52f534\">未查到失信记录<\/font>",
    "from": {
      "lon": 121.33704,
      "lat": 28.26057
    },
    "to": {
      "lon": 121.41507,
      "lat": 28.65977
    },
    "color": "78,248,57"
  },
  {
    "com": "临海市富馨贸易有限公司",
    "name": "沈军",
    "addr": "浙江省台州市临海市杜桥镇富沈村",
    "result": "<font color=\"#52f534\">未查到失信记录<\/font>",
    "from": {
      "lon": 121.50809,
      "lat": 28.754345
    },
    "to": {
      "lon": 121.41507,
      "lat": 28.65977
    },
    "color": "78,248,57"
  },
  {
    "com": "临海市吉茂眼镜有限公司",
    "name": "丁玲玲",
    "addr": "浙江省台州市临海市杜桥镇西岸工业园",
    "result": "<font color=\"#52f534\">未查到失信记录<\/font>",
    "from": {
      "lon": 121.19332,
      "lat": 28.880198
    },
    "to": {
      "lon": 121.41507,
      "lat": 28.65977
    },
    "color": "78,248,57"
  },
  {
    "com": "临海市窍哥家庭农场",
    "name": "李方兴",
    "addr": "浙江省台州市临海市白水洋镇下宅村2-207号",
    "result": "<font color=\"#52f534\">未查到失信记录<\/font>",
    "from": {
      "lon": 121.015205,
      "lat": 29.008764
    },
    "to": {
      "lon": 121.41507,
      "lat": 28.65977
    },
    "color": "78,248,57"
  },
  {
    "com": "台州市黄岩牛氏足浴店",
    "name": "李松鹤",
    "addr": "浙江省台州市黄岩区院桥镇院桥街居院新西路81号",
    "result": "<font color=\"#52f534\">未查到失信记录<\/font>",
    "from": {
      "lon": 121.25998,
      "lat": 28.555405
    },
    "to": {
      "lon": 121.41507,
      "lat": 28.65977
    },
    "color": "78,248,57"
  },
  {
    "com": "临海市思邈足浴馆",
    "name": "张莹",
    "addr": "浙江省台州市临海市古城街道回浦路66号（耀达商场内）",
    "result": "<font color=\"#52f534\">未查到失信记录<\/font>",
    "from": {
      "lon": 121.127426,
      "lat": 28.852526
    },
    "to": {
      "lon": 121.41507,
      "lat": 28.65977
    },
    "color": "78,248,57"
  },
  {
    "com": "台州市黄岩美其乐塑料厂",
    "name": "沈隽健",
    "addr": "浙江省台州市黄岩区高桥街道八份堂村新大街188号",
    "result": "<font color=\"#52f534\">未查到失信记录<\/font>",
    "from": {
      "lon": 121.245,
      "lat": 28.590294
    },
    "to": {
      "lon": 121.41507,
      "lat": 28.65977
    },
    "color": "78,248,57"
  },
  {
    "com": "玉环龙悦保健按摩店",
    "name": "金明刚",
    "addr": "浙江省玉环市清港镇迎宾路372号",
    "result": "<font color=\"#52f534\">未查到失信记录<\/font>",
    "from": {
      "lon": 121.28261,
      "lat": 28.253056
    },
    "to": {
      "lon": 121.41507,
      "lat": 28.65977
    },
    "color": "78,248,57"
  },
  {
    "com": "台州市黄岩阿龙电动车修理店",
    "name": "苏阿龙",
    "addr": "浙江省台州市黄岩区北城街道唐家山村",
    "result": "<font color=\"#52f534\">未查到失信记录<\/font>",
    "from": {
      "lon": 121.22747,
      "lat": 28.695107
    },
    "to": {
      "lon": 121.41507,
      "lat": 28.65977
    },
    "color": "78,248,57"
  },
  {
    "com": "玉环果恋水果店",
    "name": "李娜娜",
    "addr": "浙江省玉环市清港镇清华路（清港综合市场一楼东面）",
    "result": "<font color=\"#52f534\">未查到失信记录<\/font>",
    "from": {
      "lon": 121.28561,
      "lat": 28.25412
    },
    "to": {
      "lon": 121.41507,
      "lat": 28.65977
    },
    "color": "78,248,57"
  },
  {
    "com": "台州市路桥欣花土灶猪肉饭店",
    "name": "应小花",
    "addr": "浙江省台州市路桥区蓬街镇蓬街居3区42号",
    "result": "<font color=\"#52f534\">未查到失信记录<\/font>",
    "from": {
      "lon": 121.49239,
      "lat": 28.557909
    },
    "to": {
      "lon": 121.41507,
      "lat": 28.65977
    },
    "color": "78,248,57"
  },
  {
    "com": "温岭市箬横超天美容院",
    "name": "张云葵",
    "addr": "浙江省台州市温岭市箬横镇箬横村人民北路西61号",
    "result": "<font color=\"#52f534\">未查到失信记录<\/font>",
    "from": {
      "lon": 121.52701,
      "lat": 28.403902
    },
    "to": {
      "lon": 121.41507,
      "lat": 28.65977
    },
    "color": "78,248,57"
  },
  {
    "com": "温岭市石塘小珠营养健康咨询服务部",
    "name": "王小珠",
    "addr": "浙江省台州市温岭市石塘镇万裕路24号(2楼）",
    "result": "<font color=\"#52f534\">未查到失信记录<\/font>",
    "from": {
      "lon": 121.61272,
      "lat": 28.284143
    },
    "to": {
      "lon": 121.41507,
      "lat": 28.65977
    },
    "color": "78,248,57"
  },
  {
    "com": "温岭市城东慧开面馆",
    "name": "阮金飞",
    "addr": "浙江省台州市温岭市城东街道汇头王村A区52幢437号",
    "result": "<font color=\"#52f534\">未查到失信记录<\/font>",
    "from": {
      "lon": 121.39035,
      "lat": 28.405489
    },
    "to": {
      "lon": 121.41507,
      "lat": 28.65977
    },
    "color": "78,248,57"
  },
  {
    "com": "台州黄岩东亚油品有限公司埭东加油点",
    "name": "李仙国",
    "addr": "浙江省台州市黄岩区东城街道埭东村28号",
    "result": "<font color=\"#52f534\">未查到失信记录<\/font>",
    "from": {
      "lon": 121.29866,
      "lat": 28.667566
    },
    "to": {
      "lon": 121.41507,
      "lat": 28.65977
    },
    "color": "78,248,57"
  },
  {
    "com": "台州市路桥大冰冰服装店",
    "name": "陈健蔚",
    "addr": "浙江省台州市路桥区蓬街镇青龙东路二区107号后间",
    "result": "<font color=\"#52f534\">未查到失信记录<\/font>",
    "from": {
      "lon": 121.48946,
      "lat": 28.557364
    },
    "to": {
      "lon": 121.41507,
      "lat": 28.65977
    },
    "color": "78,248,57"
  },
  {
    "com": "温岭市棉花糖鞋业有限公司",
    "name": "蔡素琴",
    "addr": "浙江省台州市温岭市城北街道杨家渭村88、89号",
    "result": "<font color=\"#52f534\">未查到失信记录<\/font>",
    "from": {
      "lon": 121.37795,
      "lat": 28.451273
    },
    "to": {
      "lon": 121.41507,
      "lat": 28.65977
    },
    "color": "78,248,57"
  },
  {
    "com": "台州市黄岩艺兴模具加工厂",
    "name": "管园园",
    "addr": "浙江省台州市黄岩区北城街道黄土岭村",
    "result": "<font color=\"#52f534\">未查到失信记录<\/font>",
    "from": {
      "lon": 121.25323,
      "lat": 28.686062
    },
    "to": {
      "lon": 121.41507,
      "lat": 28.65977
    },
    "color": "78,248,57"
  },
  {
    "com": "台州市黄岩新花切削工具加工厂",
    "name": "秦新花",
    "addr": "浙江省台州市黄岩区新前街道泾岸村",
    "result": "<font color=\"#52f534\">未查到失信记录<\/font>",
    "from": {
      "lon": 121.214615,
      "lat": 28.669247
    },
    "to": {
      "lon": 121.41507,
      "lat": 28.65977
    },
    "color": "78,248,57"
  },
  {
    "com": "玉环时代烧烤店",
    "name": "肖开俊",
    "addr": "浙江省玉环市大麦屿街道兴港西路500号",
    "result": "<font color=\"#52f534\">未查到失信记录<\/font>",
    "from": {
      "lon": 121.16401,
      "lat": 28.091806
    },
    "to": {
      "lon": 121.41507,
      "lat": 28.65977
    },
    "color": "78,248,57"
  },
  {
    "com": "台州市椒江可米米摄影馆",
    "name": "陈佳媛",
    "addr": "浙江省台州市椒江区章安路42号",
    "result": "<font color=\"#52f534\">未查到失信记录<\/font>",
    "from": {
      "lon": 121.44665,
      "lat": 28.687756
    },
    "to": {
      "lon": 121.41507,
      "lat": 28.65977
    },
    "color": "78,248,57"
  },
  {
    "com": "台州黄岩时光纸箱厂",
    "name": "赵江琪",
    "addr": "浙江省台州市黄岩区院桥镇鉴洋村",
    "result": "<font color=\"#52f534\">未查到失信记录<\/font>",
    "from": {
      "lon": 121.319084,
      "lat": 28.551584
    },
    "to": {
      "lon": 121.41507,
      "lat": 28.65977
    },
    "color": "78,248,57"
  },
  {
    "com": "玉环格丰机械厂",
    "name": "徐敬香",
    "addr": "浙江省玉环市大麦屿街道刘园塘股路",
    "result": "<font color=\"#52f534\">未查到失信记录<\/font>",
    "from": {
      "lon": 121.16361,
      "lat": 28.091614
    },
    "to": {
      "lon": 121.41507,
      "lat": 28.65977
    },
    "color": "78,248,57"
  },
  {
    "com": "台州市椒江有家民宿",
    "name": "徐康友",
    "addr": "浙江省台州市椒江区下大陈环镇路36号",
    "result": "<font color=\"#52f534\">未查到失信记录<\/font>",
    "from": {
      "lon": 121.46738,
      "lat": 28.657015
    },
    "to": {
      "lon": 121.41507,
      "lat": 28.65977
    },
    "color": "78,248,57"
  },
  {
    "com": "台州市椒江老台门小吃店",
    "name": "张飞",
    "addr": "浙江省台州市椒江区江城北路130号",
    "result": "<font color=\"#52f534\">未查到失信记录<\/font>",
    "from": {
      "lon": 121.44903,
      "lat": 28.687548
    },
    "to": {
      "lon": 121.41507,
      "lat": 28.65977
    },
    "color": "78,248,57"
  },
  {
    "com": "台州市黄岩唯天模具加工厂",
    "name": "汪本成",
    "addr": "浙江省台州市黄岩区新前街道泾岸村",
    "result": "<font color=\"#52f534\">未查到失信记录<\/font>",
    "from": {
      "lon": 121.214615,
      "lat": 28.669247
    },
    "to": {
      "lon": 121.41507,
      "lat": 28.65977
    },
    "color": "78,248,57"
  },
  {
    "com": "台州市椒江小善美食店",
    "name": "柯素夏",
    "addr": "浙江省台州市椒江区光明路173-3号",
    "result": "<font color=\"#52f534\">未查到失信记录<\/font>",
    "from": {
      "lon": 121.4551,
      "lat": 28.685448
    },
    "to": {
      "lon": 121.41507,
      "lat": 28.65977
    },
    "color": "78,248,57"
  },
  {
    "com": "临海市陈和晓日用品店",
    "name": "陈和晓",
    "addr": "浙江省台州市临海市古城街道柏叶西路316号（华润万家超市内）",
    "result": "<font color=\"#52f534\">未查到失信记录<\/font>",
    "from": {
      "lon": 121.15763,
      "lat": 28.857897
    },
    "to": {
      "lon": 121.41507,
      "lat": 28.65977
    },
    "color": "78,248,57"
  },
  {
    "com": "台州市椒江伯正建材经营部",
    "name": "李伯正",
    "addr": "浙江省台州市椒江区前所街道河坎下村200号",
    "result": "<font color=\"#52f534\">未查到失信记录<\/font>",
    "from": {
      "lon": 121.52432,
      "lat": 28.718266
    },
    "to": {
      "lon": 121.41507,
      "lat": 28.65977
    },
    "color": "78,248,57"
  },
  {
    "com": "玉环东云电脑店",
    "name": "蒋华锋",
    "addr": "浙江省玉环市清港镇下凡村下片93-1号",
    "result": "<font color=\"#52f534\">未查到失信记录<\/font>",
    "from": {
      "lon": 121.28878,
      "lat": 28.277534
    },
    "to": {
      "lon": 121.41507,
      "lat": 28.65977
    },
    "color": "78,248,57"
  },
  {
    "com": "台州市黄岩晶晶文彬服装店",
    "name": "解文彬",
    "addr": "浙江省台州市黄岩区澄江街道童家洋村",
    "result": "<font color=\"#52f534\">未查到失信记录<\/font>",
    "from": {
      "lon": 121.2234,
      "lat": 28.633047
    },
    "to": {
      "lon": 121.41507,
      "lat": 28.65977
    },
    "color": "78,248,57"
  },
  {
    "com": "玉环硕泉五金商行",
    "name": "沈贤权",
    "addr": "浙江省玉环市大麦屿街道刘园",
    "result": "<font color=\"#52f534\">未查到失信记录<\/font>",
    "from": {
      "lon": 121.16361,
      "lat": 28.091614
    },
    "to": {
      "lon": 121.41507,
      "lat": 28.65977
    },
    "color": "78,248,57"
  },
  {
    "com": "仙居县云展冷藏制品经营部",
    "name": "万云展",
    "addr": "浙江省台州市仙居县官路镇寺前万村28号",
    "result": "<font color=\"#52f534\">未查到失信记录<\/font>",
    "from": {
      "lon": 120.66882,
      "lat": 28.834745
    },
    "to": {
      "lon": 121.41507,
      "lat": 28.65977
    },
    "color": "78,248,57"
  },
  {
    "com": "温岭市滨海晓伟酒水批发部",
    "name": "邢晓伟",
    "addr": "浙江省台州市温岭市滨海镇湾下村221号",
    "result": "<font color=\"#52f534\">未查到失信记录<\/font>",
    "from": {
      "lon": 121.518394,
      "lat": 28.479908
    },
    "to": {
      "lon": 121.41507,
      "lat": 28.65977
    },
    "color": "78,248,57"
  },
  {
    "com": "台州市椒江姜水清小吃店",
    "name": "姜水清",
    "addr": "浙江省台州市椒江区椒江农场建设村3-2号",
    "result": "<font color=\"#52f534\">未查到失信记录<\/font>",
    "from": {
      "lon": 121.515594,
      "lat": 28.618282
    },
    "to": {
      "lon": 121.41507,
      "lat": 28.65977
    },
    "color": "78,248,57"
  },
  {
    "com": "温岭市大溪运升农家菜馆",
    "name": "王永伟",
    "addr": "浙江省台州市温岭市大溪镇上新建村235号",
    "result": "<font color=\"#52f534\">未查到失信记录<\/font>",
    "from": {
      "lon": 121.26788,
      "lat": 28.46799
    },
    "to": {
      "lon": 121.41507,
      "lat": 28.65977
    },
    "color": "78,248,57"
  },
  {
    "com": "台州市椒江刘刘早餐店",
    "name": "秦宏亮",
    "addr": "浙江省台州市椒江区椒江农场农场小区207号",
    "result": "<font color=\"#52f534\">未查到失信记录<\/font>",
    "from": {
      "lon": 121.512794,
      "lat": 28.619127
    },
    "to": {
      "lon": 121.41507,
      "lat": 28.65977
    },
    "color": "78,248,57"
  },
  {
    "com": "天台詹露内衣店",
    "name": "詹露",
    "addr": "浙江省台州市天台县赤城街道杏庄路1号",
    "result": "<font color=\"#52f534\">未查到失信记录<\/font>",
    "from": {
      "lon": 121.05285,
      "lat": 29.145077
    },
    "to": {
      "lon": 121.41507,
      "lat": 28.65977
    },
    "color": "78,248,57"
  },
  {
    "com": "天台王汪浚理发店",
    "name": "王汪浚",
    "addr": "浙江省台州市天台县赤城街道和平路48号",
    "result": "<font color=\"#52f534\">未查到失信记录<\/font>",
    "from": {
      "lon": 121.02972,
      "lat": 29.147778
    },
    "to": {
      "lon": 121.41507,
      "lat": 28.65977
    },
    "color": "78,248,57"
  },
  {
    "com": "天台宏固门业经营部",
    "name": "孙秦全",
    "addr": "浙江省台州市天台县始丰街道下科山村",
    "result": "<font color=\"#52f534\">未查到失信记录<\/font>",
    "from": {
      "lon": 121.00007,
      "lat": 29.169748
    },
    "to": {
      "lon": 121.41507,
      "lat": 28.65977
    },
    "color": "78,248,57"
  },
  {
    "com": "天台佳辉副食店",
    "name": "陈冬晓",
    "addr": "浙江省台州市天台县赤城街道西苑巷1-7号",
    "result": "<font color=\"#52f534\">未查到失信记录<\/font>",
    "from": {
      "lon": 121.05285,
      "lat": 29.145077
    },
    "to": {
      "lon": 121.41507,
      "lat": 28.65977
    },
    "color": "78,248,57"
  },
  {
    "com": "天台县徐灿建材经营部",
    "name": "翁则见",
    "addr": "浙江省台州市天台县南屏乡里翁村",
    "result": "<font color=\"#52f534\">未查到失信记录<\/font>",
    "from": {
      "lon": 120.99043,
      "lat": 29.070768
    },
    "to": {
      "lon": 121.41507,
      "lat": 28.65977
    },
    "color": "78,248,57"
  },
  {
    "com": "天台聪聪化妆品店",
    "name": "汪聪娇",
    "addr": "浙江省台州市天台县赤城街道赤城路399号太平洋购物中心内",
    "result": "<font color=\"#52f534\">未查到失信记录<\/font>",
    "from": {
      "lon": 121.03717,
      "lat": 29.149088
    },
    "to": {
      "lon": 121.41507,
      "lat": 28.65977
    },
    "color": "78,248,57"
  },
  {
    "com": "天台县许岳标沙场",
    "name": "许岳标",
    "addr": "浙江省台州市天台县福溪街道三望洋村",
    "result": "<font color=\"#52f534\">未查到失信记录<\/font>",
    "from": {
      "lon": 120.98308,
      "lat": 29.15283
    },
    "to": {
      "lon": 121.41507,
      "lat": 28.65977
    },
    "color": "78,248,57"
  },
  {
    "com": "天台懒猫便利店",
    "name": "徐双阳",
    "addr": "浙江省台州市天台县始丰街道天元西街75号",
    "result": "<font color=\"#52f534\">未查到失信记录<\/font>",
    "from": {
      "lon": 120.99901,
      "lat": 29.157148
    },
    "to": {
      "lon": 121.41507,
      "lat": 28.65977
    },
    "color": "78,248,57"
  },
  {
    "com": "天台洪氏中药材经营部",
    "name": "许光斌",
    "addr": "浙江省台州市天台县赤城街道赤城路269号",
    "result": "<font color=\"#52f534\">未查到失信记录<\/font>",
    "from": {
      "lon": 121.03199,
      "lat": 29.149271
    },
    "to": {
      "lon": 121.41507,
      "lat": 28.65977
    },
    "color": "78,248,57"
  },
  {
    "com": "天台潮曼曼服装店",
    "name": "许婉秋",
    "addr": "浙江省台州市天台县赤城街道樟下巷16号",
    "result": "<font color=\"#52f534\">未查到失信记录<\/font>",
    "from": {
      "lon": 121.05285,
      "lat": 29.145077
    },
    "to": {
      "lon": 121.41507,
      "lat": 28.65977
    },
    "color": "78,248,57"
  },
  {
    "com": "天台余家钢材经营部",
    "name": "余俊",
    "addr": "浙江省台州市天台县始丰街道天台山西路219号",
    "result": "<font color=\"#52f534\">未查到失信记录<\/font>",
    "from": {
      "lon": 121.01575,
      "lat": 29.152222
    },
    "to": {
      "lon": 121.41507,
      "lat": 28.65977
    },
    "color": "78,248,57"
  },
  {
    "com": "天台法铭汽车用品店",
    "name": "范法铭",
    "addr": "浙江省台州市天台县始丰街道青春路19号",
    "result": "<font color=\"#52f534\">未查到失信记录<\/font>",
    "from": {
      "lon": 121.01938,
      "lat": 29.148212
    },
    "to": {
      "lon": 121.41507,
      "lat": 28.65977
    },
    "color": "78,248,57"
  },
  {
    "com": "天台酷搏布艺店",
    "name": "汪礼财",
    "addr": "浙江省台州市天台县始丰街道天台山西路261号",
    "result": "<font color=\"#52f534\">未查到失信记录<\/font>",
    "from": {
      "lon": 121.01491,
      "lat": 29.153131
    },
    "to": {
      "lon": 121.41507,
      "lat": 28.65977
    },
    "color": "78,248,57"
  },
  {
    "com": "临海市老谢保健品商行",
    "name": "谢加明",
    "addr": "浙江省台州市临海市涌泉镇店头村2-48号",
    "result": "<font color=\"#52f534\">未查到失信记录<\/font>",
    "from": {
      "lon": 121.319244,
      "lat": 28.764944
    },
    "to": {
      "lon": 121.41507,
      "lat": 28.65977
    },
    "color": "78,248,57"
  },
  {
    "com": "台州市黄岩东旦模具厂",
    "name": "叶青",
    "addr": "浙江省台州市黄岩区东城街道印山路60弄27号",
    "result": "<font color=\"#52f534\">未查到失信记录<\/font>",
    "from": {
      "lon": 121.27753,
      "lat": 28.641932
    },
    "to": {
      "lon": 121.41507,
      "lat": 28.65977
    },
    "color": "78,248,57"
  },
  {
    "com": "浙江普井泵业有限公司",
    "name": "刘金辉",
    "addr": "浙江省台州市温岭市滨海镇泥涂村（温岭市腾跃五金工艺制品厂内）",
    "result": "<font color=\"#52f534\">未查到失信记录<\/font>",
    "from": {
      "lon": 121.534004,
      "lat": 28.499563
    },
    "to": {
      "lon": 121.41507,
      "lat": 28.65977
    },
    "color": "78,248,57"
  },
  {
    "com": "台州市黄岩沙埠菲滋果木牛排馆",
    "name": "胡巧少",
    "addr": "浙江省台州市黄岩区沙埠镇廿四都村",
    "result": "<font color=\"#52f534\">未查到失信记录<\/font>",
    "from": {
      "lon": 121.20611,
      "lat": 28.568024
    },
    "to": {
      "lon": 121.41507,
      "lat": 28.65977
    },
    "color": "78,248,57"
  },
  {
    "com": "临海市澳林副食超市",
    "name": "叶伟文",
    "addr": "浙江省台州市临海市杜桥镇下八年村2-1号",
    "result": "<font color=\"#52f534\">未查到失信记录<\/font>",
    "from": {
      "lon": 121.49798,
      "lat": 28.767328
    },
    "to": {
      "lon": 121.41507,
      "lat": 28.65977
    },
    "color": "78,248,57"
  },
  {
    "com": "台州市黄岩丹荣汽车服务部",
    "name": "徐丹荣",
    "addr": "浙江省台州市黄岩区南城街道方山下村麻车里52号",
    "result": "<font color=\"#52f534\">未查到失信记录<\/font>",
    "from": {
      "lon": 121.27478,
      "lat": 28.6348
    },
    "to": {
      "lon": 121.41507,
      "lat": 28.65977
    },
    "color": "78,248,57"
  },
  {
    "com": "临海市荷仙早餐店",
    "name": "翁荷仙",
    "addr": "浙江省台州市临海市杜桥镇杜川路与富南路交叉口",
    "result": "<font color=\"#52f534\">未查到失信记录<\/font>",
    "from": {
      "lon": 121.49798,
      "lat": 28.767328
    },
    "to": {
      "lon": 121.41507,
      "lat": 28.65977
    },
    "color": "78,248,57"
  },
  {
    "com": "玉环荷叶餐饮店",
    "name": "叶贤荷",
    "addr": "浙江省玉环市楚门镇东门居北大街65号",
    "result": "<font color=\"#52f534\">未查到失信记录<\/font>",
    "from": {
      "lon": 121.305504,
      "lat": 28.223553
    },
    "to": {
      "lon": 121.41507,
      "lat": 28.65977
    },
    "color": "78,248,57"
  },
  {
    "com": "台州市黄岩航轩塑料厂",
    "name": "张云龙",
    "addr": "浙江省台州市黄岩区南城街道十里铺村三区158号",
    "result": "<font color=\"#52f534\">未查到失信记录<\/font>",
    "from": {
      "lon": 121.27331,
      "lat": 28.61899
    },
    "to": {
      "lon": 121.41507,
      "lat": 28.65977
    },
    "color": "78,248,57"
  },
  {
    "com": "仙居县何中文砂石销售点",
    "name": "何中文",
    "addr": "浙江省台州市仙居县横溪镇巧胜村碧丹岩自然村",
    "result": "<font color=\"#52f534\">未查到失信记录<\/font>",
    "from": {
      "lon": 120.48578,
      "lat": 28.743313
    },
    "to": {
      "lon": 121.41507,
      "lat": 28.65977
    },
    "color": "78,248,57"
  },
  {
    "com": "温岭市太平小绿餐饮店",
    "name": "江绿善",
    "addr": "浙江省台州市温岭市太平街道人民中路1号",
    "result": "<font color=\"#52f534\">未查到失信记录<\/font>",
    "from": {
      "lon": 121.38241,
      "lat": 28.373278
    },
    "to": {
      "lon": 121.41507,
      "lat": 28.65977
    },
    "color": "78,248,57"
  },
  {
    "com": "台州市路桥明林早餐店",
    "name": "应明林",
    "addr": "浙江省台州市路桥区蓬街镇吉利安置小区35幢东起第3间",
    "result": "<font color=\"#52f534\">未查到失信记录<\/font>",
    "from": {
      "lon": 121.49239,
      "lat": 28.557909
    },
    "to": {
      "lon": 121.41507,
      "lat": 28.65977
    },
    "color": "78,248,57"
  },
  {
    "com": "台州一发轴承有限公司",
    "name": "邱云周",
    "addr": "浙江省台州市椒江区葭沚街道后许小区6幢3号一楼南面（仅限办公）",
    "result": "<font color=\"#52f534\">未查到失信记录<\/font>",
    "from": {
      "lon": 121.41578,
      "lat": 28.670563
    },
    "to": {
      "lon": 121.41507,
      "lat": 28.65977
    },
    "color": "78,248,57"
  },
  {
    "com": "临海市涌泉花蕊坦桔场",
    "name": "陈法清",
    "addr": "浙江省台州市临海市涌泉镇沙巷村54号",
    "result": "<font color=\"#52f534\">未查到失信记录<\/font>",
    "from": {
      "lon": 121.28568,
      "lat": 28.76109
    },
    "to": {
      "lon": 121.41507,
      "lat": 28.65977
    },
    "color": "78,248,57"
  },
  {
    "com": "仙居县港仔砂石销售点",
    "name": "方建伟",
    "addr": "浙江省台州市仙居县横溪镇环镇南路18号（中心小学南侧）",
    "result": "<font color=\"#52f534\">未查到失信记录<\/font>",
    "from": {
      "lon": 120.48578,
      "lat": 28.743313
    },
    "to": {
      "lon": 121.41507,
      "lat": 28.65977
    },
    "color": "78,248,57"
  },
  {
    "com": "玉环市远近快餐店",
    "name": "谢和明",
    "addr": "浙江省玉环市楚门镇龙王村新泽巷4号",
    "result": "<font color=\"#52f534\">未查到失信记录<\/font>",
    "from": {
      "lon": 121.29424,
      "lat": 28.216179
    },
    "to": {
      "lon": 121.41507,
      "lat": 28.65977
    },
    "color": "78,248,57"
  },
  {
    "com": "三门县立仁建材经营部",
    "name": "罗仙菜",
    "addr": "浙江省三门县海游街道下谢村",
    "result": "<font color=\"#52f534\">未查到失信记录<\/font>",
    "from": {
      "lon": 121.323456,
      "lat": 29.070145
    },
    "to": {
      "lon": 121.41507,
      "lat": 28.65977
    },
    "color": "78,248,57"
  },
  {
    "com": "玉环金豆豆会计事务中心",
    "name": "陈霞盛",
    "addr": "浙江省玉环市楚门镇筠岭村筠兴巷132号",
    "result": "<font color=\"#52f534\">未查到失信记录<\/font>",
    "from": {
      "lon": 121.33824,
      "lat": 28.22012
    },
    "to": {
      "lon": 121.41507,
      "lat": 28.65977
    },
    "color": "78,248,57"
  },
  {
    "com": "温岭市城东莫国清餐饮店",
    "name": "莫国清",
    "addr": "浙江省台州市温岭市城东街道汇头王村A17幢129、130号",
    "result": "<font color=\"#52f534\">未查到失信记录<\/font>",
    "from": {
      "lon": 121.389786,
      "lat": 28.412783
    },
    "to": {
      "lon": 121.41507,
      "lat": 28.65977
    },
    "color": "78,248,57"
  },
  {
    "com": "玉环芙兰斯塔摄影工作室",
    "name": "孙雅琳",
    "addr": "浙江省玉环市楚门镇南兴街10号",
    "result": "<font color=\"#52f534\">未查到失信记录<\/font>",
    "from": {
      "lon": 121.30254,
      "lat": 28.219847
    },
    "to": {
      "lon": 121.41507,
      "lat": 28.65977
    },
    "color": "78,248,57"
  },
  {
    "com": "台州市俊妙贸易有限公司",
    "name": "丁金金",
    "addr": "浙江省台州市临海市杜桥镇良种村",
    "result": "<font color=\"#52f534\">未查到失信记录<\/font>",
    "from": {
      "lon": 121.504425,
      "lat": 28.768394
    },
    "to": {
      "lon": 121.41507,
      "lat": 28.65977
    },
    "color": "78,248,57"
  },
  {
    "com": "温岭市松门赫妃美容养生馆",
    "name": "江文娟",
    "addr": "浙江省台州市温岭市松门镇远景村沿海路70号",
    "result": "<font color=\"#52f534\">未查到失信记录<\/font>",
    "from": {
      "lon": 121.60809,
      "lat": 28.353489
    },
    "to": {
      "lon": 121.41507,
      "lat": 28.65977
    },
    "color": "78,248,57"
  },
  {
    "com": "玉环伟捷机械厂",
    "name": "黄有云",
    "addr": "浙江省玉环市大麦屿街道峰源村",
    "result": "<font color=\"#52f534\">未查到失信记录<\/font>",
    "from": {
      "lon": 121.1672,
      "lat": 28.136011
    },
    "to": {
      "lon": 121.41507,
      "lat": 28.65977
    },
    "color": "78,248,57"
  },
  {
    "com": "临海市玉顺服装加工店",
    "name": "洪玉娥",
    "addr": "浙江省台州市临海市古城街道巾山小区三组团（西大门右边往东第10间）",
    "result": "<font color=\"#52f534\">未查到失信记录<\/font>",
    "from": {
      "lon": 121.14144,
      "lat": 28.848223
    },
    "to": {
      "lon": 121.41507,
      "lat": 28.65977
    },
    "color": "78,248,57"
  },
  {
    "com": "温岭市城东晨雨奶茶店",
    "name": "李建荣",
    "addr": "浙江省台州市温岭市城东街道横湖桥村横湖中路341-2号",
    "result": "<font color=\"#52f534\">未查到失信记录<\/font>",
    "from": {
      "lon": 121.38712,
      "lat": 28.391262
    },
    "to": {
      "lon": 121.41507,
      "lat": 28.65977
    },
    "color": "78,248,57"
  },
  {
    "com": "台州市黄岩玉琴工艺品厂",
    "name": "胡玉琴",
    "addr": "浙江省台州市黄岩区沙埠镇南胡村243号",
    "result": "<font color=\"#52f534\">未查到失信记录<\/font>",
    "from": {
      "lon": 121.18811,
      "lat": 28.556206
    },
    "to": {
      "lon": 121.41507,
      "lat": 28.65977
    },
    "color": "78,248,57"
  },
  {
    "com": "三门县鑫跃服装加工厂",
    "name": "罗献镯",
    "addr": "浙江省台州市三门县浦坝港镇赤坎村泽山31号",
    "result": "<font color=\"#52f534\">未查到失信记录<\/font>",
    "from": {
      "lon": 121.64923,
      "lat": 28.954508
    },
    "to": {
      "lon": 121.41507,
      "lat": 28.65977
    },
    "color": "78,248,57"
  },
  {
    "com": "玉环美科灯饰商行",
    "name": "黄学兵",
    "addr": "浙江省玉环市大麦屿街道龙山路116号",
    "result": "<font color=\"#52f534\">未查到失信记录<\/font>",
    "from": {
      "lon": 121.16349,
      "lat": 28.088287
    },
    "to": {
      "lon": 121.41507,
      "lat": 28.65977
    },
    "color": "78,248,57"
  },
  {
    "com": "台州市首正制冷配件有限公司",
    "name": "尤丽萍",
    "addr": "浙江省台州市临海市杜桥镇上林工业区",
    "result": "<font color=\"#52f534\">未查到失信记录<\/font>",
    "from": {
      "lon": 121.49798,
      "lat": 28.767328
    },
    "to": {
      "lon": 121.41507,
      "lat": 28.65977
    },
    "color": "78,248,57"
  },
  {
    "com": "玉环九顺机械厂",
    "name": "郑新",
    "addr": "浙江省玉环市楚门镇山北村工业区",
    "result": "<font color=\"#52f534\">未查到失信记录<\/font>",
    "from": {
      "lon": 121.3059,
      "lat": 28.228456
    },
    "to": {
      "lon": 121.41507,
      "lat": 28.65977
    },
    "color": "78,248,57"
  },
  {
    "com": "温岭市城东永多企业管理咨询服务部",
    "name": "黄少华",
    "addr": "浙江省台州市温岭市横山头村一区1幢1号",
    "result": "<font color=\"#52f534\">未查到失信记录<\/font>",
    "from": {
      "lon": 121.39579,
      "lat": 28.407843
    },
    "to": {
      "lon": 121.41507,
      "lat": 28.65977
    },
    "color": "78,248,57"
  },
  {
    "com": "台州市黄岩耀耀机械设备租赁部",
    "name": "毛根友",
    "addr": "浙江省台州市黄岩区新前街道峰丘村",
    "result": "<font color=\"#52f534\">未查到失信记录<\/font>",
    "from": {
      "lon": 121.19372,
      "lat": 28.72155
    },
    "to": {
      "lon": 121.41507,
      "lat": 28.65977
    },
    "color": "78,248,57"
  },
  {
    "com": "仙居县爱琴金属商行",
    "name": "潘爱琴",
    "addr": "浙江省台州市仙居县南峰街道河埠路62号",
    "result": "<font color=\"#52f534\">未查到失信记录<\/font>",
    "from": {
      "lon": 120.75142,
      "lat": 28.846678
    },
    "to": {
      "lon": 121.41507,
      "lat": 28.65977
    },
    "color": "78,248,57"
  },
  {
    "com": "仙居县学亦五金商行",
    "name": "郑亦文",
    "addr": "浙江省台州市仙居县南峰街道省耕路279号",
    "result": "<font color=\"#52f534\">未查到失信记录<\/font>",
    "from": {
      "lon": 120.73533,
      "lat": 28.857105
    },
    "to": {
      "lon": 121.41507,
      "lat": 28.65977
    },
    "color": "78,248,57"
  },
  {
    "com": "温岭市城东根福米面厂",
    "name": "陈高寿",
    "addr": "浙江省台州市温岭市城东街道湖南村521号",
    "result": "<font color=\"#52f534\">未查到失信记录<\/font>",
    "from": {
      "lon": 121.41521,
      "lat": 28.384245
    },
    "to": {
      "lon": 121.41507,
      "lat": 28.65977
    },
    "color": "78,248,57"
  },
  {
    "com": "台州市黄岩艾家塑业商行",
    "name": "叶王慧",
    "addr": "浙江省台州市黄岩区南城街道方山下村（黄岩电子商务产业园内，托管01761号）",
    "result": "<font color=\"#52f534\">未查到失信记录<\/font>",
    "from": {
      "lon": 121.27331,
      "lat": 28.61899
    },
    "to": {
      "lon": 121.41507,
      "lat": 28.65977
    },
    "color": "78,248,57"
  },
  {
    "com": "三门县华轩花店",
    "name": "叶继业",
    "addr": "浙江省三门县珠岙镇胡村",
    "result": "<font color=\"#52f534\">未查到失信记录<\/font>",
    "from": {
      "lon": 121.28327,
      "lat": 29.05535
    },
    "to": {
      "lon": 121.41507,
      "lat": 28.65977
    },
    "color": "78,248,57"
  },
  {
    "com": "仙居县骏宇橡胶制品加工厂",
    "name": "刀凤莲",
    "addr": "浙江省台州市仙居县福应街道周宅村公路片6号",
    "result": "<font color=\"#52f534\">未查到失信记录<\/font>",
    "from": {
      "lon": 120.79916,
      "lat": 28.88035
    },
    "to": {
      "lon": 121.41507,
      "lat": 28.65977
    },
    "color": "78,248,57"
  },
  {
    "com": "温岭市太平名驰汽车美容服务部",
    "name": "王和平",
    "addr": "浙江省台州市温岭市太平街道体育场路334号、336号",
    "result": "<font color=\"#52f534\">未查到失信记录<\/font>",
    "from": {
      "lon": 121.39163,
      "lat": 28.367842
    },
    "to": {
      "lon": 121.41507,
      "lat": 28.65977
    },
    "color": "78,248,57"
  },
  {
    "com": "玉环科语机械厂",
    "name": "罗祥林",
    "addr": "浙江省玉环市坎门街道东风工业区海城路",
    "result": "<font color=\"#52f534\">未查到失信记录<\/font>",
    "from": {
      "lon": 121.28364,
      "lat": 28.099894
    },
    "to": {
      "lon": 121.41507,
      "lat": 28.65977
    },
    "color": "78,248,57"
  },
  {
    "com": "台州易品居日用品厂",
    "name": "李美秋",
    "addr": "浙江省台州市黄岩区院桥镇繁荣村",
    "result": "<font color=\"#52f534\">未查到失信记录<\/font>",
    "from": {
      "lon": 121.27221,
      "lat": 28.576593
    },
    "to": {
      "lon": 121.41507,
      "lat": 28.65977
    },
    "color": "78,248,57"
  },
  {
    "com": "台州市路桥宇勇塑料制品厂",
    "name": "贺咸富",
    "addr": "浙江省台州市路桥区蓬街镇新光村（台州市新农喷雾器厂内）",
    "result": "<font color=\"#52f534\">未查到失信记录<\/font>",
    "from": {
      "lon": 121.49748,
      "lat": 28.58369
    },
    "to": {
      "lon": 121.41507,
      "lat": 28.65977
    },
    "color": "78,248,57"
  },
  {
    "com": "温岭市石塘金琴食品店",
    "name": "赵荣金",
    "addr": "浙江省台州市温岭市石塘镇三岙村三岙小区37号",
    "result": "<font color=\"#52f534\">未查到失信记录<\/font>",
    "from": {
      "lon": 121.62668,
      "lat": 28.281641
    },
    "to": {
      "lon": 121.41507,
      "lat": 28.65977
    },
    "color": "78,248,57"
  },
  {
    "com": "天台县双力橡胶制品厂",
    "name": "奚尊才",
    "addr": "天台县三合镇联合村",
    "result": "<font color=\"#fb2819\">失信被执行人<\/font>",
    "from": {
      "lon": 121.14928,
      "lat": 29.073095
    },
    "to": {
      "lon": 121.41507,
      "lat": 28.65977
    },
    "color": "250,9,0"
  },
  {
    "com": "仙居县郑刚瓷砖店",
    "name": "朱妍翔",
    "addr": "浙江省台州市仙居县田市镇东周村35省道边",
    "result": "<font color=\"#52f534\">未查到失信记录<\/font>",
    "from": {
      "lon": 120.64105,
      "lat": 28.78134
    },
    "to": {
      "lon": 121.41507,
      "lat": 28.65977
    },
    "color": "78,248,57"
  },
  {
    "com": "玉环爵森家具厂",
    "name": "阮存军",
    "addr": "浙江省玉环市楚门镇前排村",
    "result": "<font color=\"#52f534\">未查到失信记录<\/font>",
    "from": {
      "lon": 121.29723,
      "lat": 28.242249
    },
    "to": {
      "lon": 121.41507,
      "lat": 28.65977
    },
    "color": "78,248,57"
  },
  {
    "com": "临海市应旭升小吃店",
    "name": "应旭升",
    "addr": "浙江省台州市临海市上盘镇沿海路32号",
    "result": "<font color=\"#52f534\">未查到失信记录<\/font>",
    "from": {
      "lon": 121.597664,
      "lat": 28.755085
    },
    "to": {
      "lon": 121.41507,
      "lat": 28.65977
    },
    "color": "78,248,57"
  },
  {
    "com": "台州市黄岩妤升苗木场",
    "name": "姚虞良",
    "addr": "浙江省台州市黄岩区高桥街道坦桥村",
    "result": "<font color=\"#52f534\">未查到失信记录<\/font>",
    "from": {
      "lon": 121.25053,
      "lat": 28.591812
    },
    "to": {
      "lon": 121.41507,
      "lat": 28.65977
    },
    "color": "78,248,57"
  },
  {
    "com": "临海市朱丽华豆制品加工作坊",
    "name": "朱丽华",
    "addr": "浙江省台州市临海市河头镇殿前村375号",
    "result": "<font color=\"#52f534\">未查到失信记录<\/font>",
    "from": {
      "lon": 121.107544,
      "lat": 28.994452
    },
    "to": {
      "lon": 121.41507,
      "lat": 28.65977
    },
    "color": "78,248,57"
  },
  {
    "com": "仙居县足矣家家居用品商行",
    "name": "陈耀建",
    "addr": "浙江省仙居县下各镇黄梁陈村街南东片104号",
    "result": "<font color=\"#52f534\">未查到失信记录<\/font>",
    "from": {
      "lon": 120.86192,
      "lat": 28.86447
    },
    "to": {
      "lon": 121.41507,
      "lat": 28.65977
    },
    "color": "78,248,57"
  },
  {
    "com": "玉环辰赛机械有限公司",
    "name": "缪建敏",
    "addr": "浙江省玉环市大麦屿街道五一村（玉环市五一汽车配件厂内）",
    "result": "<font color=\"#52f534\">未查到失信记录<\/font>",
    "from": {
      "lon": 121.17426,
      "lat": 28.080046
    },
    "to": {
      "lon": 121.41507,
      "lat": 28.65977
    },
    "color": "78,248,57"
  },
  {
    "com": "台州市椒江晨缘房产经纪服务部",
    "name": "尹凤玉",
    "addr": "浙江省台州市椒江区花园新村65号楼二单元402室车库",
    "result": "<font color=\"#52f534\">未查到失信记录<\/font>",
    "from": {
      "lon": 121.432976,
      "lat": 28.684622
    },
    "to": {
      "lon": 121.41507,
      "lat": 28.65977
    },
    "color": "78,248,57"
  },
  {
    "com": "仙居县伟益医药有限公司",
    "name": "朱小伟",
    "addr": "浙江省台州市仙居县南峰街道世纪华都1202室（仅限办公使用）",
    "result": "<font color=\"#52f534\">未查到失信记录<\/font>",
    "from": {
      "lon": 120.73307,
      "lat": 28.842575
    },
    "to": {
      "lon": 121.41507,
      "lat": 28.65977
    },
    "color": "78,248,57"
  },
  {
    "com": "台州市路桥劲邦包子店",
    "name": "吴春桥",
    "addr": "浙江省台州市路桥区金清镇金港东路243号",
    "result": "<font color=\"#52f534\">未查到失信记录<\/font>",
    "from": {
      "lon": 121.53874,
      "lat": 28.507412
    },